facility_id,clean_name,clean_type,clean_parish,clean_capacity,licence_issue_date,inspection_date,lat,lon,remarks
4158,Abbott And Sons,Unknown,St. Andrew,,2019-05-02,,12.88159,-59.05226,Needs upgrade
HF-0964,Abbott And Sons,Hospital,St. Joseph,259.0,2023-12-26,,12.90995,-58.96064,
3,"Abbott, Lowery And Parrish Medical Center",Polyclinic,St. Joseph,132.0,2019-12-17,,12.73557,-59.00063,♥
#4562,"Abbott, Terry And Hendrix Health Centre",Community Health Centre,St. Andrew,,2018-12-25,,12.9129,-59.29663,
6903,Abbott-Montgomery Infirmary,Clinic,St. Peter,312.0,2019-09-27,2019-10-03,,,Good
HF-2278,Abbott-Roman Health Centre,Clinic,St. George,,2021-09-25,,13.25985,-58.91471,Needs upgrade
#4014,Acevedo Ltd,Community Health Centre,St. James,,2022-06-12,,13.27163,-58.86784,Good
c7c617,"Acevedo, Hall And Kelly Clin",Polyclinic,St. Peter,,2017-03-10,,,,Reinspection due
9,"Acevedo, Pierce And Campbell Hospital",Community Health Centre,St. George,140.0,2017-02-19,,13.19943,-58.85743,
453,Acevedo-Carr Medical Center,Community Health Centre,St. Andrew,100.0,2020-02-01,,12.95591,-58.99932,Reinspection due
4279,Acevedo-Cohen Hosp,Other,St. John,407.0,2021-08-03,2024-02-17,,,Reinspection due
HF-1908,Acosta Inc Health Centre,Unknown,Christ Church,158.0,2019-12-18,,13.09158,-59.21254,
780,"Acosta, Bailey And Smith Hosp",Hospital,St. George,71.0,2020-07-17,,,,-
HF-1586,"Acosta, Clayton And Patel",Hospital,St. Michael,,2023-03-24,,12.98096,-59.00641,♥
15,"Acosta, Serrano And Alexander Medical Center",Unknown,St. Joseph,,2018-09-21,2023-12-24,12.73076,-59.27255,
1678,Acosta-Atkins Hospital,Hospital,St. Joseph,157.0,2016-08-09,,12.77407,-58.80806,
17,Acosta-Thomas Infirmary,Clinic,St. Andrew,473.0,2021-09-17,,12.97663,-58.89596,♥
02300,Adams Group Clin,Clinic,St. Lucy,117.0,2022-11-26,,13.27727,-58.92294,Good
19,Adams Inc Clin,Clinic,St. Michael,154.0,2023-09-29,,12.79049,-58.76224,
HF-0405,Adams Inc Hosp,Polyclinic,St. Andrew,,2020-06-01,,,,♥
HF-8752,Adams Llc,Polyclinic,St. Michael,10.0,2023-10-18,,12.92979,-59.20936,Follow-up 2023
22,Adams Llc Polyclinic,Hospital,St. Andrew,484.0,2023-11-08,2024-07-29,13.11595,-59.02981,
03591,Adams Plc,Community Health Centre,St. John,10.0,2016-06-14,,13.25345,-58.72335, 
4551,Adams Plc Clinic,Clinic,St. John,290.0,2018-08-10,,13.17917,-58.83459, 
69a8bd,Adams Plc Hospital,Community Health Centre,St. Joseph,10.0,,,13.17585,-58.95587,♥
64962b,"Adams, Campbell And Dominguez",Polyclinic,St. Andrew,111.0,2025-03-19,,13.18666,-59.00272,-
00697,"Adams, Craig And Delgado Hosp",Polyclinic,St. George,,2025-05-18,,,,
6138,"Adams, Garrison And Baker Hosp",Clinic,St. James,65.0,2022-01-19,,13.02154,-59.07936,Follow-up 2023
05292,"Adams, Gilbert And Harmon Infirmary",Community Health Centre,St. George,49.0,2020-03-26,,,,Follow-up 2023
05038,"Adams, Hill And Williams Hosp",Community Health Centre,St. Michael,10.0,2024-02-18,,,,Needs upgrade
4829,"Adams, Morris And Barber",Other,St. Michael,94.0,2022-03-04,,13.26392,-59.28429,
08041,"Adams, Myers And Santos Hosp",Polyclinic,St. Andrew,187.0,2023-08-12,,,,-
33,"Adams, Ramos And Castillo",Hospital,St. George,10.0,2016-03-31,,12.95072,-58.98249,Needs upgrade
34,"Adams, Soto And Guzman Medical Center",Community Health Centre,St. Andrew,473.0,2025-08-03,,13.25048,-58.7404,Needs upgrade
799370,"Adams, Watson And Summers Health Centre",Other,St. Michael,,2019-05-16,,13.02258,-59.17715,Follow-up 2023
HF-4298,"Adams, Weber And Velasquez",Other,St. Joseph,10.0,2023-02-12,2023-01-05,13.10326,-59.01278, 
49378e,"Adams,-Carr-And-Johnson Clin",Clinic,St. Joseph,284.0,2016-11-30,,,,♥
38,"Adams,-Hurley-And-Hill Hosp",Clinic,St. Andrew,10.0,2022-11-25,,12.84123,-59.12032,Reinspection due
HF-0025,"Adams,-Silva-And-Davidson Medical Center",Unknown,St. George,99.0,2021-09-03,,13.11901,-59.06883,-
40,Adams-Anderson,Clinic,St. Andrew,273.0,2024-02-28,,12.87856,-59.04716,Reinspection due
41,Adams-Baker,Unknown,St. Joseph,256.0,2020-12-10,,13.27308,-59.26071,
HF-0117,Adams-Curry Hosp,Unknown,St. Michael,43.0,2018-10-22,,13.09176,-59.19394, 
43,Adams-Davidson,Other,St. Andrew,,2019-01-20,,13.02749,-58.70024,
8163,Adams-Davis,Community Health Centre,St. Michael,,2020-06-17,,12.72593,-59.11539,
#3444,Adams-Gould Polyclinic,Clinic,Christ Church,497.0,2021-05-16,,12.78264,-58.91478,
07606,Adams-Juarez,Clinic,St. John,180.0,2018-01-07,,,,Follow-up 2023
#9589,Adams-Monroe Clinic,Hospital,St. John,,2023-09-27,,13.01636,-58.80329,Good
#4356,Adams-Plc,Community Health Centre,St. Michael,129.0,2017-04-04,,12.81643,-58.98258,Needs upgrade
04409,Adams-Rodriguez Polyclinic,Hospital,St. James,140.0,2017-04-29,,13.08355,-59.08079,Follow-up 2023
5602,Adams-Shaw,Unknown,St. George,55.0,,,13.11608,-58.72923,
51,Adams-Spencer,Hospital,St. Michael,,2016-04-05,,,,Good
#6053,Adams-Stevens,Community Health Centre,St. Andrew,188.0,2017-08-28,,,,Follow-up 2023
#4402,Adams-Winters Polyclinic,Polyclinic,St. Lucy,194.0,2023-12-15,,13.06527,-58.90119,
HF-8535,Adkins-Allen Clinic,Other,St. George,48.0,2025-11-21,,13.1431,-58.83453,Good
55,Adkins-Bolton Polyclinic,Clinic,St. Lucy,137.0,2016-09-20,,13.05,-58.71041,
05161,Adkins-David,Other,St. Joseph,,2020-10-16,,,,
57,Adkins-Inc Health Centre,Community Health Centre,Christ Church,23.0,2018-07-03,,13.27228,-59.27966,♥
07082,Adkins-Jones Hospital,Community Health Centre,St. James,60.0,2021-04-09,,12.92201,-58.84548,-
HF-7537,Aguilar Ltd,Hospital,St. Michael,8.0,2019-04-06,,,,
HF-1455,Aguilar Plc Hosp,Community Health Centre,St. Michael,,2022-12-16,,12.98704,-58.90431, 
61,"Aguilar, Benjamin And Rogers Health Centre",Polyclinic,St. John,213.0,2019-07-15,,,,Needs upgrade
08307,"Aguilar, Brooks And Allen",Clinic,St. Michael,120.0,2020-04-28,2019-07-15,,,
#6093,"Aguilar, Rice And Stanley Clinic",Clinic,St. John,,2017-09-21,,13.12037,-58.97275,Reinspection due
4497,"Aguilar, Schultz And Leonard Hosp",Other,St. Michael,,2025-10-13,2024-08-10,12.80532,-58.7231, 
da2f6b,"Aguilar, Simon And West Hosp.",Clinic,St. Michael,,2021-04-24,2020-12-15,13.02004,-58.79046,♥
313,"Aguilar, West And White",Clinic,St. Peter,,2020-08-15,,12.86355,-58.80355,-
67,"Aguilar,-Knapp-And-Clayton Clinic",Clinic,St. Andrew,10.0,2016-02-06,,13.1349,-58.79714,♥
HF-4136,Aguilar-Carroll Health Centre,Hospital,St. Joseph,,2021-04-25,,13.19782,-59.03996,-
04858,Aguilar-Garza,Clinic,St. Andrew,,2019-05-24,,12.72582,-59.28927,
HF-7151,Aguilar-Parker Medical Center,Polyclinic,St. Peter,10.0,2018-02-07,,12.93028,-58.78491,Reinspection due
07758,Aguilar-Ramirez Hospital,Clinic,St. John,409.0,2019-11-20,2022-12-01,,,-
#2604,Aguilar-Sanchez Infirmary,Hospital,St. Michael,216.0,2020-04-15,,13.10554,-59.02529,-
ce50dd,Aguilar-Williams Infirmary,Polyclinic,Christ Church,212.0,2018-12-21,,12.84201,-59.19897,Reinspection due
74,Aguirre Inc Hospital,Polyclinic,St. John,,2021-05-01,2025-04-30,,,Needs upgrade
09710,"Aguirre, Garza And Mcguire Medical Center",Unknown,St. Joseph,,2016-08-03,,,,Reinspection due
HF-7939,"Aguirre, Hunter And Glenn Infirmary",Community Health Centre,Christ Church,298.0,2023-03-02,,,,Reinspection due
07970,"Aguirre, Olson And Duarte Health Centre",Hospital,St. Peter,493.0,2017-09-09,,13.01027,-59.10087,-
#4679,"Aguirre, Wang And Wall Infirmary",Community Health Centre,St. George,417.0,2017-02-26,,,,Good
7751,Aguirre-Thompson Hosp,Clinic,St. Peter,,2017-09-06,2019-02-08,12.96407,-58.79022,-
80,Alexander Group Clinic,Community Health Centre,St. Michael,167.0,2020-07-08,,,,♥
1255,Alexander Group Hospital,Polyclinic,St. Michael,418.0,2017-08-11,,12.78439,-59.10829,-
9902,Alexander Llc Infirmary,Clinic,St. James,413.0,2023-06-30,,13.08251,-58.98977,
83,Alexander Llc Polyclinic,Clinic,St. Andrew,10.0,2024-09-21,,,,Follow-up 2023
84,Alexander Ltd,Hospital,St. Joseph,331.0,2022-06-25,,,,
85,"Alexander, Cox And Davis",Unknown,St. George,452.0,2020-05-03,,12.7957,-59.1732,
86,"Alexander, Dickerson And Mcneil Hospital",Community Health Centre,St. Joseph,375.0,2016-04-15,,12.82967,-59.25233,Follow-up 2023
09368,"Alexander, Garcia And Romero Infirmary",Unknown,St. Joseph,,2023-06-23,,12.71094,-59.09083,Good
88,"Alexander, Gomez And Evans",Hospital,Christ Church,344.0,2021-09-28,2022-06-02,13.29761,-58.9388,
#908,"Alexander, Graves And Travis Health Centre",Community Health Centre,St. James,164.0,2017-02-27,2025-08-07,,,♥
2444,"Alexander, Jones And Anderson Infirmary",Clinic,St. James,116.0,2019-05-06,,13.01059,-59.28706,Reinspection due
91,"Alexander, Morales And Taylor",Clinic,St. Peter,59.0,2020-05-08,,13.12169,-58.97026,Needs upgrade
07197,"Alexander, Mueller And Goodwin",Unknown,St. George,269.0,2025-12-27,2024-11-15,13.23796,-58.73033,Follow-up 2023
93,"Alexander,-Burke-And-Mcclure",Other,Christ Church,,2018-02-20,2025-09-17,12.77228,-59.09262,Follow-up 2023
3130,"Alexander,-Green-And-Odonnell Medical Center",Community Health Centre,St. Michael,303.0,2025-06-12,2024-03-06,,, 
HF-1607,Alexander-Group Polyclinic,Community Health Centre,St. Joseph,264.0,2019-06-30,,12.86843,-58.9826,
96,Alexander-Stewart Infirmary,Polyclinic,Christ Church,39.0,2019-11-12,,,,Reinspection due
#7676,Alexander-Velazquez,Community Health Centre,St. Lucy,448.0,2021-03-12,,13.09463,-58.89381,Reinspection due
8740,"Ali, Jones And Hill Hosp",Clinic,St. Joseph,394.0,2018-09-09,2020-12-30,,,
99,Ali-Inc Medical Center,Hospital,St. Michael,,2021-02-15,,12.76376,-59.04939, 
7276,Allen Group,Community Health Centre,St. James,210.0,2022-03-26,,,,Good
101,Allen Group,Community Health Centre,St. Michael,107.0,2021-08-09,,12.94648,-59.12424,
#1888,Allen Group Hosp,Community Health Centre,St. Michael,483.0,2017-02-20,,13.2707,-58.93783,
5737,Allen Inc Hosp,Hospital,St. John,73.0,2023-10-17,,13.00462,-58.84781,-
104,Allen Inc Medical Center,Clinic,St. Joseph,,2016-05-11,,13.08219,-58.96048,
105,Allen Llc,Polyclinic,St. George,201.0,,2025-10-29,13.10743,-58.97173,-
#4954,Allen Llc Health Centre,Community Health Centre,St. Lucy,59.0,2022-12-06,,13.22836,-58.89606,
8658,Allen Llc Hosp,Polyclinic,St. Michael,8.0,2018-11-28,,13.03366,-59.12537, 
108,Allen Ltd Clinic,Clinic,St. George,347.0,2024-01-17,,12.85858,-59.1488,Follow-up 2023
3061,Allen Plc,Other,Christ Church,119.0,2021-05-11,,,,♥
HF-5876,Allen Plc Clinic,Community Health Centre,St. Joseph,486.0,2022-08-16,,12.70139,-58.97649,
#475,"Allen, Haley And Pham",Clinic,St. Joseph,,2016-12-09,,,,
HF-9881,"Allen, Johnson And Best Infirmary",Community Health Centre,St. Peter,488.0,2024-02-19,,,,
#5837,"Allen, Johnson And Dominguez Clinic",Community Health Centre,St. James,209.0,2023-11-17,,13.19662,-59.22286,
516e77,"Allen, Mcdonald And Burke Health Centre",Community Health Centre,St. Andrew,139.0,2023-09-04,,13.27277,-59.05216, 
#23,"Allen, Riley And Kennedy",Hospital,St. Peter,,2025-10-22,,,,Reinspection due
116,"Allen, Rivas And Wiggins Polyclinic",Community Health Centre,St. Andrew,410.0,2016-06-28,,13.22555,-59.10336,Needs upgrade
988296,"Allen, Simmons And Thompson Medical Center",Unknown,St. Peter,,2020-03-01,,13.12024,-58.80428,Good
8dd49a,"Allen, Simpson And Blackwell",Hospital,St. John,54.0,2023-06-21,,13.08054,-59.00322,♥
#471,"Allen, Villanueva And Wilson Medical Center",Polyclinic,St. Peter,127.0,2020-12-15,,13.11447,-58.72503,-
2776,"Allen, Walker And Hart Infirmary",Unknown,St. Lucy,278.0,,,12.86745,-59.01269, 
#9422,"Allen, Williams And Ortiz Polyclinic",Clinic,St. John,,2022-06-16,,12.73403,-58.84017,Good
07116,"Allen, Williams And Rivers",Polyclinic,St. George,10.0,2016-11-18,,13.14811,-59.02729,Good
03261,"Allen,-Gordon-And-Gonzalez Hosp",Hospital,Christ Church,450.0,2020-11-06,,,,Reinspection due
06149,"Allen,-Irwin-And-Hernandez Polyclinic",Community Health Centre,St. George,432.0,2023-05-26,,12.97354,-58.76436,
04c144,"Allen,-Miller-And-Hernandez Hospital",Community Health Centre,St. Lucy,401.0,2024-12-12,,13.26365,-59.05108,♥
b4213f,"Allen,-Small-And-Moore Polyclinic",Community Health Centre,St. James,448.0,2024-05-02,,12.8369,-59.13701, 
8948,Allen-And-Sons Hospital,Community Health Centre,St. George,272.0,2016-10-06,2025-11-04,12.97517,-58.85566,
29d5ed,Allen-Brewer,Clinic,St. Joseph,,2022-04-28,,,,
129,Allen-Brown,Community Health Centre,St. Lucy,,2022-04-30,,,, 
130,Allen-Brown,Unknown,St. John,10.0,2025-08-26,,,,-
440256,Allen-Campos Medical Center,Polyclinic,St. John,68.0,2024-07-16,,12.71191,-59.2228,
132,Allen-Davis Hosp,Hospital,Hcruhc Tsirhc,,2019-02-15,,,,-
#4821,Allen-Elliott Medical Center,Community Health Centre,St. George,10.0,2022-01-30,,13.05952,-58.84919,Needs upgrade
38cb07,Allen-Farmer,Polyclinic,Christ Church,423.0,2021-06-08,2020-01-29,12.97091,-58.85175,Follow-up 2023
398cb5,Allen-Gonzales Polyclinic (Hcruhc),Community Health Centre,Hcruhc Tsirhc,334.0,2023-11-29,2018-09-02,12.82261,-58.76306,Follow-up 2023
00565,Allen-Group,Community Health Centre,St. Joseph,81.0,2020-04-13,2020-11-01,13.01586,-58.97301,
5022,Allen-Harris Hosp,Community Health Centre,St. Michael,,2017-06-30,,12.95278,-58.74176,Follow-up 2023
HF-4181,Allen-Hill,Polyclinic,Christ Church,,2025-01-25,,,, 
139,Allen-Inc,Unknown,Christ Church,,2022-05-27,2025-07-14,12.92724,-58.93216,Reinspection due
HF-1300,Allen-Inc Hospital,Other,St. Lucy,381.0,2019-08-09,,,,-
6690,Allen-Johnson,Clinic,St. Lucy,181.0,2016-07-23,,,,-
142,Allen-Jones Health Centre,Community Health Centre,St. Joseph,10.0,2025-06-07,,,,Reinspection due
HF-4061,Allen-Key,Clinic,St. John,10.0,2024-03-03,2025-06-01,12.90913,-59.02777, 
02418,Allen-Ltd Medical Center,Unknown,St. Andrew,307.0,2021-10-08,2021-11-05,13.2496,-59.04192,Follow-up 2023
145,Allen-Mason Hospital,Polyclinic,St. Lucy,10.0,2024-03-18,,12.9018,-59.29462,
9749,Allen-Murphy,Polyclinic,St. Joseph,,2023-02-24,,13.21064,-58.96556,Follow-up 2023
147,Allen-Murphy,Clinic,St. Lucy,,2021-05-24,,13.27164,-59.23134,Follow-up 2023
00845,Allen-Nelson Health Centre,Clinic,St. Andrew,,2016-10-18,,,,-
HF-5397,Allen-Richardson,Unknown,St. George,95.0,2025-03-18,,13.26462,-58.85057, 
150,Allen-Rodgers Hosp,Community Health Centre,St. Peter,34.0,2016-12-22,,13.05136,-58.97962,
4375,Allen-Ryan,Clinic,St. Joseph,10.0,2024-09-13,,12.7075,-59.01415, 
HF-1329,Allen-Turner Hospital,Hospital,St. James,126.0,2022-05-21,,13.2536,-59.08317, 
2082,Allison Ltd,Polyclinic,St. Andrew,200.0,2017-06-11,,13.04614,-58.92501,
154,Allison Plc,Polyclinic,St. George,20.0,2023-11-07,2020-08-25,,,
155,"Allison, Bolton And Hubbard Medical Center",Other,St. Michael,229.0,2025-01-31,,,,Reinspection due
2754,"Allison, Hernandez And Morgan Hospital",Community Health Centre,St. Joseph,,2020-12-16,2024-07-25,,,♥
157,"Allison, Terry And Garcia",Polyclinic,St. George,,2021-09-03,,,,♥
#2252,"Alvarado, Ballard And Adams Health Centre",Unknown,St. Peter,375.0,2024-05-10,,,,-
HF-8480,"Alvarado, Boyd And Henderson Infirmary",Community Health Centre,St. John,,2016-06-01,,,,Follow-up 2023
4413,"Alvarado, Davis And Thompson Infirmary",Clinic,St. John,,2024-09-16,,12.82946,-58.78728,
HF-8377,"Alvarado, Rodgers And Morgan Infirmary",Clinic,St. John,72.0,2025-05-27,,,,Needs upgrade
#8608,Alvarado-And-Sons Hosp,Clinic,St. Michael,432.0,2024-02-05,2024-04-29,12.78617,-58.90073,
163,Alvarado-Hall Infirmary,Hospital,St. John,,2016-03-13,,12.85608,-58.8542,Reinspection due
164,Alvarado-Jones,Polyclinic,St. Lucy,355.0,2022-04-12,,13.2396,-59.28959,Needs upgrade
7962,Alvarado-Lester,Community Health Centre,St. James,,2025-03-29,,12.8445,-58.95861,-
166,Alvarado-Murray Infirmary,Community Health Centre,St. James,493.0,2021-01-15,,,, 
167,Alvarado-Rivas Infirmary,Community Health Centre,St. Michael,285.0,2022-06-08,2021-04-09,13.24289,-58.91065,Good
168,Alvarez And Sons,Polyclinic,St. George,232.0,2023-10-24,,,,
05342,Alvarez And Sons Clinic,Unknown,St. Michael,10.0,2020-01-16,,12.8493,-58.70533,♥
1071,Alvarez Group,Clinic,St. Lucy,23.0,2017-06-05,,13.00556,-58.89584,Good
HF-6454,Alvarez Inc Health Centre,Community Health Centre,St. James,1.0,2024-08-30,2020-07-23,13.14603,-58.94697, 
#953,Alvarez Inc Health Centre,Polyclinic,Hcruhc Tsirhc,281.0,2025-08-14,,,,-
173,Alvarez Ltd Health Centre,Polyclinic,Christ Church,10.0,2023-02-24,,13.20105,-58.87357,-
1748,Alvarez Plc Clinic,Other,St. Michael,246.0,2016-08-11,,12.89848,-59.29273,Follow-up 2023
#4472,"Alvarez, Glover And Stephens Hosp",Community Health Centre,St. Andrew,321.0,2017-04-23,,13.26021,-58.81949, 
176,"Alvarez, Keith And Brown Polyclinic",Community Health Centre,St. Michael,398.0,2021-01-12,,,,Needs upgrade
177,"Alvarez, Lee And Lane",Unknown,St. Lucy,132.0,2020-05-14,,13.11815,-58.74806,
02091,"Alvarez, Martinez And Arnold Infirmary",Polyclinic,St. Andrew,10.0,2017-09-03,,12.74503,-58.89211,Follow-up 2023
#7320,"Alvarez, Montgomery And Velez Hospital",Unknown,St. Lucy,,2017-03-04,,12.96735,-58.77233,Good
180,"Alvarez,-Thompson-And-Lopez Clinic",Other,St. Peter,425.0,2024-02-28,2023-03-16,12.94056,-59.09549,♥
396,Alvarez-Anderson,Polyclinic,St. Lucy,56.0,2024-07-16,,12.79446,-59.12168,Good
182,Alvarez-Banks,Unknown,St. John,339.0,2018-11-14,,12.98966,-59.04008,-
183,Alvarez-Brown,Community Health Centre,St. James,301.0,2019-06-13,,13.04233,-58.86532,Reinspection due
2383,Alvarez-Scott Hospital,Other,St. Andrew,,2024-07-01,,13.07114,-59.25522,Needs upgrade
#2223,Alvarez-Soto (Ycul),Clinic,St. Lucy,10.0,2023-10-22,,12.87732,-58.77145,Good
186,Andersen And Sons Clinic,Other,St. James,474.0,2017-06-02,2025-09-04,13.043,-59.04862, 
187,Andersen Inc,Clinic,St. Joseph,80.0,2017-11-08,,13.18199,-59.26325,Needs upgrade
188,Andersen-Bates,Clinic,St. Andrew,,2024-04-01,2022-05-17,13.11097,-59.02439,
07126,Andersen-Roman,Community Health Centre,St. George,,2016-12-31,,12.8137,-59.07348,Good
#4965,Anderson And Sons Hosp,Polyclinic,St. Andrew,10.0,2023-05-06,,13.18747,-59.08036,
#1034,Anderson Group,Unknown,Hcruhc Tsirhc,,2022-12-17,,,,Needs upgrade
773,Anderson Group Hosp,Other,St. Andrew,401.0,2018-09-20,,,,Good
193,Anderson Group Hospital,Community Health Centre,St. Lucy,270.0,2021-08-29,,12.70894,-59.24957,
07699,Anderson Inc,Other,St. John,99.0,2024-11-13,,13.28166,-59.13298,
#5130,Anderson Inc Hosp,Polyclinic,Christ Church,10.0,2020-05-19,,13.23501,-59.11393,Good
196,Anderson Llc,Community Health Centre,St. James,,2019-08-29,,,,Reinspection due
197,Anderson Llc Clinic,Hospital,St. George,,2023-09-02,,13.15359,-58.8611,Reinspection due
198,Anderson Llc Hospital,Community Health Centre,St. Peter,10.0,2020-05-05,,13.17301,-58.89234,-
d273d4,Anderson Llc Medical Center,Clinic,St. John,45.0,2024-04-07,2019-02-01,13.1662,-59.29873,-
200,Anderson Llc Medical Center,Community Health Centre,St. Lucy,56.0,2020-09-26,,,,
00168,Anderson Llc Polyclinic,Hospital,St. Michael,274.0,2023-07-23,,13.29045,-59.18973,-
202,Anderson Ltd,Polyclinic,St. Joseph,281.0,2021-03-12,2024-08-26,13.07185,-59.28442,Reinspection due
09039,Anderson Ltd,Clinic,St. Lucy,,2017-03-14,,13.28848,-58.99842,
204,Anderson Ltd Hospital,Hospital,St. Joseph,35.0,2023-10-05,,13.21796,-59.18648,
205,Anderson Ltd Medical Center,Hospital,Christ Church,378.0,2025-08-19,,,,
8583,Anderson Ltd Polyclinic,Clinic,St. James,47.0,2016-12-07,,,,Follow-up 2023
09774,Anderson Ltd Polyclinic,Unknown,St. George,206.0,2021-07-25,,13.26885,-59.21451,Follow-up 2023
04366,Anderson Plc,Unknown,St. Peter,,2024-07-30,,,,♥
HF-9854,Anderson Plc Health Centre,Other,St. Lucy,90.0,2017-11-23,,,,♥
210,Anderson Plc Medical Center,Clinic,St. George,290.0,2017-06-21,,,,♥
03110,Anderson Plc Polyclinic,Polyclinic,St. John,411.0,2022-01-31,,12.95522,-58.87843,Reinspection due
HF-4530,"Anderson, Blackwell And Chung Hospital",Community Health Centre,St. Joseph,,2021-12-20,,12.74673,-59.05849,-
#6323,"Anderson, Blair And Wagner Infirmary",Clinic,St. George,14.0,2018-02-17,2023-04-09,,,♥
214,"Anderson, Castillo And Williams Health Centre",Unknown,St. Joseph,352.0,2022-10-15,,,, 
HF-6406,"Anderson, Chambers And Harvey Health Centre",Polyclinic,St. Michael,10.0,2017-07-28,,13.13175,-58.951,
#5251,"Anderson, Contreras And Giles Infirmary",Unknown,St. John,478.0,2016-10-05,,12.82897,-58.73433,Needs upgrade
bba64c,"Anderson, Copeland And Torres Polyclinic",Hospital,St. Andrew,10.0,2022-07-03,,,,♥
HF-9733,"Anderson, Gilbert And Turner Health Centre",Hospital,St. John,,2023-07-19,,12.95678,-58.92906,Needs upgrade
8588de,"Anderson, Howard And Johnson Hosp",Hospital,St. Michael,10.0,2024-12-06,,12.91079,-59.15274,♥
04041,"Anderson, Keith And Howe Hospital",Hospital,St. Joseph,10.0,2023-07-29,,12.89136,-58.97572, 
9429,"Anderson, Lucero And Fuller Clinic",Polyclinic,St. James,,2020-09-23,2024-09-19,12.79819,-59.20393,Follow-up 2023
760e5a,"Anderson, Martin And Bush Hosp",Clinic,St. Lucy,387.0,2017-03-19,,13.09005,-59.24184, 
HF-6196,"Anderson, Martin And Wilson",Clinic,St. Joseph,242.0,2024-02-28,2024-08-16,,,Good
224,"Anderson, Mccoy And Charles",Community Health Centre,Christ Church,301.0,2016-09-21,,13.00591,-58.88255,
225,"Anderson, Mitchell And Irwin Health Centre",Community Health Centre,St. Michael,467.0,2023-06-16,,12.83286,-58.94521,♥
c981b3,"Anderson, Oliver And Ochoa Polyclinic",Unknown,St. Joseph,10.0,2019-08-06,,13.18835,-59.25327, 
483fe1,"Anderson, Perez And Murphy Infirmary",Clinic,St. Michael,10.0,2017-02-13,,12.91294,-59.11783,
09810,"Anderson, Phillips And Torres Hospital",Unknown,St. Lucy,330.0,2023-01-01,,13.2629,-58.70135,Reinspection due
e7dafa,"Anderson, Sanchez And Davis Health Centre",Community Health Centre,Christ Church,184.0,2018-10-13,,12.86721,-58.91345,
HF-3284,"Anderson, Smith And Torres Clinic",Other,St. Lucy,477.0,2023-10-25,2022-09-17,13.18282,-59.24596,-
#8857,"Anderson, Taylor And Reilly Infirmary",Community Health Centre,St. Michael,,2016-04-29,,13.28775,-59.18811, 
HF-4652,"Anderson, Todd And Daniel",Community Health Centre,St. Lucy,,2022-02-16,,13.08359,-59.01051,
04397,"Anderson, Torres And Hall",Community Health Centre,St. George,,2022-01-23,,12.89633,-59.09566, 
125,"Anderson, Wagner And Williams Hospital",Clinic,St. James,299.0,2020-08-29,,,, 
235,"Anderson, Williams And Gardner",Other,St. Andrew,10.0,2017-11-15,,13.01692,-59.11779,Follow-up 2023
HF-1004,"Anderson, Wood And Riggs Hospital",Clinic,St. John,179.0,2023-06-10,,12.97271,-58.98407,♥
fbae13,"Anderson,-Bailey-And-Chavez Medical Center",Community Health Centre,St. James,,2018-11-22,,12.81028,-58.80856,Reinspection due
238,"Anderson,-Jones-And-Gardner Infirmary",Clinic,St. Andrew,,2020-05-28,,,,Follow-up 2023
#2900,"Anderson,-Miller-And-Munoz Medical Center",Clinic,St. Andrew,416.0,2024-10-18,,13.27461,-58.8578,Good
HF-7312,"Anderson,-Valenzuela-And-Andrade",Clinic,Christ Church,,2024-11-07,,12.70665,-58.87669,
04074,Anderson-Baker Polyclinic,Other,St. James,22.0,2021-07-26,,,,-
242,Anderson-Bell Clinic,Clinic,St. Peter,,2016-09-30,,,,♥
03535,Anderson-Carr Polyclinic,Community Health Centre,Christ Church,78.0,2025-10-05,,12.8942,-58.87363, 
8457,Anderson-Carter,Other,St. Andrew,,2025-06-02,,13.27106,-58.70032,♥
1965,Anderson-Davis Clinic,Unknown,St. George,81.0,2020-02-27,,,,Good
00199,Anderson-Esparza Health Centre,Polyclinic,St. George,191.0,2018-03-04,,,,Needs upgrade
#5822,Anderson-French Infirmary,Community Health Centre,St. John,,2020-07-15,,,, 
#7253,Anderson-Huerta,Hospital,St. James,10.0,2021-08-12,,13.07194,-58.93193, 
249,Anderson-Inc,Hospital,St. James,,2021-07-25,,,,Reinspection due
3bc221,Anderson-Johnson Hosp,Hospital,St. George,10.0,2024-12-08,,,,-
HF-7048,Anderson-Lewis,Hospital,St. Michael,110.0,2019-11-22,,,,
#3440,Anderson-Llc Clinic,Unknown,Christ Church,24.0,2023-11-20,,,, 
HF-8882,Anderson-Meyers,Unknown,St. Peter,59.0,2022-07-22,,12.99731,-58.81271, 
254,Anderson-Miller Polyclinic,Clinic,St. Lucy,,2018-03-02,,13.02942,-58.70964,-
255,Anderson-Myers,Hospital,St. Andrew,397.0,2022-08-20,,,, 
227,Anderson-Osborn Health Centre,Polyclinic,St. Peter,460.0,2025-11-29,,,,Follow-up 2023
47e793,Anderson-Plc Hosp,Community Health Centre,St. Lucy,430.0,2024-03-10,2021-12-21,12.91979,-59.02907,
a3da77,Anderson-Rangel Hospital,Clinic,St. Lucy,,2016-08-14,,12.79421,-58.91201,Reinspection due
09214,Anderson-Salazar Clinic,Clinic,St. Peter,,2022-10-10,,12.72334,-59.07624,Reinspection due
0ca67e,Anderson-Stokes,Community Health Centre,St. Michael,468.0,2025-07-13,2021-04-02,,,
261,Anderson-Thompson Clinic,Community Health Centre,St. George,482.0,2018-11-20,,13.1073,-58.72728,Good
HF-0688,Anderson-Walker Clin,Unknown,St. George,,2021-02-22,,13.02301,-58.92459,-
263,Anderson-White,Polyclinic,St. Joseph,394.0,2021-07-16,,13.18047,-59.2982,Needs upgrade
264,Anderson-York Polyclinic,Community Health Centre,St. George,,2025-05-21,,12.94447,-59.29222,Reinspection due
HF-9848,"Andrade, Dickson And Wilson Clinic",Clinic,St. James,,2020-02-10,,,,-
266,"Andrade, West And Daniels",Clinic,St. Michael,386.0,2017-09-07,,,,Good
267,Andrews Group,Community Health Centre,St. James,,2023-12-17,,12.8675,-59.04942,Reinspection due
06188,"Andrews, Dawson And Smith",Hospital,St. Andrew,218.0,2025-08-25,,13.24656,-58.81446,Reinspection due
#8325,"Andrews,-Chen-And-Rubio",Polyclinic,St. Andrew,265.0,2025-10-16,,12.9659,-58.96685, 
270,Andrews-Anthony Health Centre,Community Health Centre,St. Joseph,304.0,2024-07-23,,,,-
271,Andrews-Cummings Hosp,Unknown,St. James,356.0,2016-07-24,,,,Reinspection due
272,Andrews-Foster Health Centre,Clinic,St. John,486.0,2021-06-12,,13.04147,-58.84077,♥
273,Andrews-Harrison Health Centre,Clinic,St. Michael,354.0,2022-01-18,,13.20364,-59.15607,Reinspection due
#2279,Andrews-Llc Polyclinic,Clinic,St. Lucy,361.0,2019-09-21,,13.06556,-58.83818,
275,Andrews-Sanders,Community Health Centre,St. Michael,,,,12.76359,-58.88482,
03617,Andrews-Thompson Clinic,Community Health Centre,St. Peter,,2021-01-18,,13.21668,-58.95011,Good
#1961,Anthony And Sons Infirmary,Clinic,St. John,,2020-12-02,,,,
04569,Anthony Plc (Hcruhc),Community Health Centre,Hcruhc Tsirhc,215.0,2024-02-22,,13.18597,-59.09495,Good
HF-3037,"Anthony, Castillo And James Infirmary",Unknown,St. Joseph,,2025-02-21,,,,Follow-up 2023
8611,"Anthony,-Parker-And-Bowman",Clinic,St. Andrew,,2018-07-10,,,,
281,Anthony-Scott Health Centre,Polyclinic,St. Andrew,180.0,2025-11-02,2023-09-28,12.89519,-59.00598,Good
01032,"Archer, Perry And Hall",Clinic,St. John,141.0,2024-02-19,,13.04259,-59.25231,Reinspection due
02309,"Archer,-Hughes-And-Porter",Community Health Centre,Christ Church,,2019-08-29,,,,-
4597,Archer-House,Hospital,St. Peter,,2025-05-19,,,, 
9086,Arellano Group Medical Center,Clinic,St. Joseph,342.0,2020-01-27,,,,Needs upgrade
efed3d,Arellano Inc,Unknown,St. James,55.0,2024-09-10,,13.03385,-59.28796,Needs upgrade
#6759,"Arellano,-Castaneda-And-Evans",Polyclinic,St. Lucy,487.0,2018-08-22,2024-05-12,13.08286,-58.84846,Good
03177,Arellano-Freeman,Hospital,St. Michael,,2025-08-18,,12.78626,-58.88712,
83522d,"Arias, Bean And Anderson Health Centre",Polyclinic,St. James,,2024-04-03,,,,-
290,Arias-And-Sons,Community Health Centre,Hcruhc Tsirhc,35.0,2024-12-22,,,,Follow-up 2023
291,Armstrong Inc Medical Center,Clinic,St. Andrew,,2025-05-30,,13.1858,-58.73313, 
e4f83d,Armstrong Ltd Health Centre,Community Health Centre,St. Michael,,2021-05-02,,13.05945,-58.83313,
04622,Armstrong Plc Polyclinic,Other,St. Lucy,483.0,2023-08-02,,,,♥
294,Armstrong-And-Sons Health Centre,Unknown,Christ Church,328.0,2019-05-11,,13.19468,-58.8556,Good
01587,Armstrong-Daniels,Community Health Centre,Christ Church,109.0,2022-12-17,,,,Good
01939,Armstrong-Davis Polyclinic,Unknown,St. John,,2018-07-01,,13.18148,-59.015,
89d929,Arnold Llc Clin,Unknown,St. Peter,105.0,2019-11-25,,12.87689,-58.97436,Good
03244,Arnold Llc Infirmary,Clinic,St. James,49.0,2021-11-19,2023-03-26,,,♥
8848,Arnold Ltd Polyclinic,Clinic,St. Joseph,11.0,2024-08-25,,,,Good
#3115,"Arnold, Diaz And Ortiz",Clinic,St. Lucy,10.0,2020-03-31,,,,
301,"Arnold, Gibson And Williams",Hospital,St. Peter,,2017-12-25,,,,Follow-up 2023
302,"Arnold, Hernandez And Allen Hospital",Unknown,St. Peter,390.0,2022-12-01,,13.08769,-58.94351,Needs upgrade
6763,"Arnold, Hudson And Clayton Health Centre",Community Health Centre,St. Peter,,2019-04-27,,13.25409,-58.87256,Reinspection due
HF-0145,"Arnold, White And Barrett Clinic",Other,St. James,199.0,2025-08-31,,,,
5928,Arnold-Bailey Polyclinic,Unknown,St. George,,2025-11-22,,13.17843,-58.70757,♥
HF-4624,Arnold-Cameron Hospital,Clinic,St. James,333.0,2016-05-26,,13.11958,-58.83845,♥
07387,Arnold-Hoffman,Polyclinic,St. James,270.0,2024-05-08,2024-12-26,,,Follow-up 2023
08165,Arnold-Horne Clinic,Community Health Centre,St. Andrew,414.0,2024-11-23,,12.83461,-59.28376,Good
5341,Arnold-Jones Infirmary,Unknown,St. Michael,,2020-10-03,,12.99279,-58.99006,
01579,Arnold-Mccarty Infirmary,Clinic,St. Andrew,379.0,2019-11-28,,13.20478,-59.27953,Good
00456,Arnold-Ramirez Polyclinic,Hospital,Christ Church,,2022-12-29,,13.11835,-59.00419,
4c3a87,Arroyo Group Health Centre,Polyclinic,St. John,235.0,2018-12-01,,,,Good
1426,Arroyo Llc Clinic,Unknown,St. James,122.0,2025-01-28,,12.80884,-58.94243, 
34e24e,"Arroyo, Lee And Ford Medical Center",Community Health Centre,St. Andrew,,2016-03-29,,12.73776,-58.73343,Good
HF-1711,Ashley Plc Infirmary,Polyclinic,St. George,,2018-10-27,,13.24336,-59.17196,Reinspection due
#2237,"Ashley,-Ellis-And-Wood",Hospital,St. George,10.0,,2022-04-26,13.07073,-58.835,Reinspection due
HF-4328,Ashley-Harris Polyclinic,Hospital,St. John,,2017-10-05,,,,Needs upgrade
#4320,Ashley-Llc,Clinic,St. Peter,,2023-10-21,,12.90886,-59.20026,
319,Ashley-Snow,Hospital,St. Joseph,297.0,2023-12-10,,13.28638,-58.93541, 
HF-1680,Atkins Inc Hosp,Polyclinic,St. Lucy,321.0,2021-10-31,,13.03149,-59.25258,Good
08941,Atkins Inc Infirmary,Polyclinic,St. James,174.0,2022-09-23,,12.84919,-59.10997,♥
02452,Atkins Plc Clinic,Clinic,St. James,304.0,2022-05-21,,12.79633,-59.06818,Reinspection due
323,Atkins Plc Infirmary,Clinic,St. Peter,,2020-06-13,,,,
854,"Atkins, Hunt And Webb Polyclinic",Community Health Centre,St. Michael,10.0,2025-04-05,,13.19004,-58.76378, 
e3c8ec,"Atkins, Romero And Davis Health Centre",Hospital,St. Michael,302.0,2018-03-30,2022-04-25,12.86689,-59.0511, 
326,Atkins-Llc,Clinic,St. Joseph,37.0,2023-03-22,,,,Follow-up 2023
327,Atkins-Watkins,Community Health Centre,St. Joseph,,2023-04-13,,,,Follow-up 2023
1138,"Atkinson,-Wells-And-Rios Polyclinic",Community Health Centre,St. James,,2022-01-15,,,,Follow-up 2023
HF-7948,Atkinson-Boyer Health Centre,Community Health Centre,Christ Church,,2019-06-08,,,,
330,Atkinson-Charles Hosp,Hospital,St. Lucy,375.0,2021-07-12,,13.15935,-59.24133,-
HF-2145,Austin Group,Community Health Centre,St. George,418.0,2021-02-18,,,,
332,"Austin, Davis And Alvarez Polyclinic",Clinic,St. John,274.0,2017-04-16,,13.16776,-59.11594,Follow-up 2023
333,"Austin, Evans And Page",Community Health Centre,Christ Church,315.0,2018-02-21,,,,Needs upgrade
334,"Austin, Hill And Ramsey Hospital",Community Health Centre,Christ Church,,2022-03-28,,,,♥
335,"Austin, Robertson And Russo Medical Center",Community Health Centre,St. George,,2023-10-23,,13.16886,-59.22451,-
HF-0200,"Austin, Smith And Hamilton Hosp",Clinic,Christ Church,,2025-10-08,,12.70468,-58.77693, 
5862,"Austin,-Perez-And-Vaughn Infirmary",Unknown,St. Joseph,263.0,2016-08-24,,12.73185,-59.14483,Needs upgrade
5839,Austin-Martin,Clinic,St. Lucy,459.0,2017-02-22,,,, 
904,Austin-Mitchell,Unknown,St. George,90.0,2025-06-13,2022-02-09,12.70819,-59.076,Follow-up 2023
51d453,Austin-Rodriguez,Clinic,St. John,55.0,2024-05-07,,13.01426,-59.08976,-
bd51df,Austin-Romero Medical Center,Unknown,St. Joseph,,2021-06-02,,12.76806,-58.98349,
#7099,Avery Plc,Unknown,St. George,232.0,2024-03-05,,12.71291,-59.02038,-
c9d334,Avery Plc Clin,Clinic,St. James,,2020-07-10,,12.88567,-59.20635,
e6b995,"Avery, Goodwin And Mitchell Health Centre",Clinic,St. Peter,,2018-10-10,,,,
345,"Avery, Middleton And Le",Hospital,St. John,,2020-05-27,,12.71967,-59.13804,
87aec8,"Avery, Torres And Evans Hosp",Polyclinic,St. Joseph,375.0,2016-03-07,,12.89575,-59.23322,Follow-up 2023
347,"Avery,-Mendoza-And-Cook",Clinic,St. George,,2021-06-15,,12.82759,-58.91246,Follow-up 2023
2508,Avery-Macias,Community Health Centre,St. Joseph,65.0,2016-12-21,,12.83906,-59.22658,Good
05487,"Avila, Craig And Glass Polyclinic",Unknown,St. Lucy,,2022-06-22,2024-02-10,,,Follow-up 2023
HF-7626,"Avila, Swanson And Oliver",Clinic,St. Peter,10.0,2024-08-05,,12.77075,-59.04812,
5132,Avila-Grant Hospital,Polyclinic,St. Peter,253.0,2019-12-16,,12.85595,-59.25158, 
0dacea,Avila-Jones Hospital,Hospital,Christ Church,156.0,2017-04-19,,13.28658,-59.21736,-
353,"Ayala,-Carter-And-Morton Hosp",Community Health Centre,St. Joseph,245.0,2018-01-02,,,,
05535,Ayala-Day Clinic,Polyclinic,St. James,134.0,2022-01-17,,,,Needs upgrade
355,"Ayers, Steele And Wheeler Clinic",Clinic,St. Peter,210.0,2017-05-30,,12.77935,-58.71316,Reinspection due
#9299,"Ayers,-Gordon-And-Burnett Medical Center",Hospital,St. Joseph,337.0,2016-01-23,,,,Reinspection due
#7398,Ayers-Baker,Unknown,St. Joseph,,2019-04-05,,,,
#7069,Ayers-Graham Medical Center,Clinic,Christ Church,413.0,2017-03-07,,13.23501,-59.07713,Reinspection due
097679,Ayers-King Clinic,Community Health Centre,St. John,,2019-12-08,,12.9968,-59.20064,
360,Bailey And Sons Health Centre,Hospital,St. John,124.0,2016-06-03,,13.04852,-58.70293,Reinspection due
#8278,Bailey Group Hospital,Hospital,St. Joseph,338.0,2018-12-23,2018-06-09,12.8073,-59.15895,Needs upgrade
01301,Bailey Group Infirmary,Polyclinic,St. Peter,,2023-06-15,,12.73177,-59.13926,Reinspection due
09102,Bailey Inc Health Centre,Community Health Centre,St. Michael,,2024-09-28,,12.74909,-58.99886,
HF-2949,Bailey Llc Hosp,Other,St. George,406.0,2017-01-12,,12.84951,-58.76584,Follow-up 2023
365,Bailey Ltd,Clinic,St. James,10.0,2016-01-23,,13.03978,-58.75691,-
#5148,Bailey Ltd Hosp,Clinic,St. John,10.0,2023-06-01,2019-03-24,,,♥
367,Bailey Ltd Infirmary,Hospital,St. James,,2022-11-15,,12.75493,-58.94555,Good
368,"Bailey, Grant And Jordan Clinic",Unknown,St. Lucy,27.0,2019-05-01,,12.80299,-58.80306,Good
369,"Bailey, James And Duncan Infirmary",Clinic,St. John,10.0,2016-10-20,,,,Needs upgrade
7542,"Bailey, Marsh And Baker Clinic",Community Health Centre,St. Andrew,,2021-10-10,,,,
02705,"Bailey, Meyers And Garza Health Centre",Community Health Centre,St. Peter,,2016-02-26,,12.99677,-59.06773,Good
372,"Bailey, Phelps And Castillo Clinic",Hospital,St. George,9.0,2019-01-11,,13.27408,-58.76864,Needs upgrade
373,"Bailey, Roth And Keller",Community Health Centre,St. George,379.0,2024-05-01,,,,
08702,Bailey-Bishop Polyclinic,Hospital,St. Peter,69.0,2016-08-04,,,,
0292d6,Bailey-Group Health Centre,Community Health Centre,St. George,,2024-07-11,,,,♥
376,Bailey-Jones Hosp,Polyclinic,St. Joseph,8.0,2025-12-17,2019-02-01,12.83455,-59.14595,Good
HF-0578,Bailey-Lee,Community Health Centre,St. James,,2019-02-19,,13.11804,-58.89566,
1894,Bailey-Lucas Hospital,Polyclinic,St. James,244.0,2021-11-19,,13.05389,-58.98789,-
379,Bailey-Martin Infirmary,Other,St. James,406.0,2024-05-06,2022-07-22,13.215,-58.76914,-
HF-1769,Bailey-Oconnor Hosp,Hospital,St. Lucy,69.0,2020-03-16,,,,-
#2290,Bailey-Rose,Community Health Centre,St. Michael,148.0,2022-05-18,,12.85355,-59.21438,Follow-up 2023
#545,Bailey-Williams Hospital,Polyclinic,St. Andrew,,2024-02-12,2024-02-03,,,Good
8e83ba,Baird Llc,Community Health Centre,St. James,,2016-09-23,,,,Needs upgrade
03995,"Baird, Espinoza And Mueller Medical Center",Unknown,St. Lucy,10.0,2024-07-22,,12.80963,-59.28492,Good
385,Baker And Sons Hosp,Unknown,St. Andrew,48.0,2024-08-20,2021-07-04,13.15298,-58.87063, 
00802,Baker And Sons Hosp,Clinic,St. Lucy,128.0,2025-02-17,,13.23679,-59.12124,
9276e7,Baker And Sons Medical Center,Polyclinic,St. Joseph,,2017-09-27,,,,-
HF-7034,Baker Group Clinic,Other,Christ Church,367.0,2018-04-20,,13.10412,-58.73749,
#6437,Baker Group Hospital,Community Health Centre,Christ Church,,2022-05-25,,13.29055,-59.0852,Reinspection due
04963,Baker Group Infirmary,Polyclinic,St. James,104.0,2018-02-13,2025-06-21,,, 
#3945,Baker Inc,Polyclinic,St. Peter,489.0,2020-06-16,,12.94822,-59.19427,♥
2286,Baker Ltd Hospital,Unknown,St. Joseph,,2024-10-30,2022-10-10,13.15715,-59.28374,-
393,Baker Plc,Unknown,St. Peter,332.0,2025-08-01,,,,
394,Baker Plc,Community Health Centre,Christ Church,296.0,2017-09-28,,12.96327,-59.29946, 
f9df2f,"Baker, Adams And Lin Medical Center",Unknown,St. Andrew,151.0,2019-02-22,,,,
7552,"Baker, Bishop And Walters",Community Health Centre,Christ Church,3.0,2016-03-09,,12.96314,-59.28151,Needs upgrade
05977,"Baker, Case And Jackson Hosp",Hospital,St. John,,2025-11-22,2023-06-21,,,Reinspection due
00204,"Baker, Castaneda And Erickson Clin",Community Health Centre,St. John,,2017-06-17,,12.70715,-58.85114,Reinspection due
2054,"Baker, Daugherty And Savage",Community Health Centre,St. James,,2024-05-04,,13.00314,-59.00162,Needs upgrade
06129,"Baker, Davis And Singh",Community Health Centre,St. Joseph,143.0,2020-03-24,,12.95057,-58.91751,Reinspection due
04967,"Baker, Glass And Johns",Community Health Centre,St. Lucy,,2024-11-02,,,,
#5495,"Baker, Larsen And Clark",Unknown,Christ Church,,2023-09-12,,13.25633,-59.08173,♥
5003,"Baker, Lee And Brandt Health Centre",Community Health Centre,Christ Church,,2025-09-25,,,, 
#7841,"Baker, Mccann And Taylor Polyclinic",Clinic,St. Peter,,2020-07-22,,13.1966,-58.73248,♥
4474,"Baker,-Adams-And-Gomez",Clinic,St. James,261.0,2024-02-01,,13.29624,-58.76005,-
4536,Baker-Cabrera Polyclinic,Polyclinic,St. Joseph,51.0,2021-11-20,,12.76606,-58.99814,
#3148,Baker-Cameron Clinic,Polyclinic,St. Michael,,2018-12-29,,13.10432,-59.13226, 
HF-1231,Baker-Ewing Polyclinic,Community Health Centre,St. James,,2019-01-31,2023-08-15,12.99946,-58.77379,Reinspection due
409,Baker-Green,Hospital,Christ Church,420.0,2020-09-16,,13.12058,-58.94417,♥
410,Baker-Martinez,Unknown,St. Andrew,382.0,2019-09-05,2022-02-25,12.80997,-59.26537,Good
411,Baker-Orr Medical Center,Unknown,St. Michael,,2019-09-13,,12.77681,-59.04363,Follow-up 2023
022,Baker-Taylor Hosp,Unknown,St. Joseph,,2018-04-02,,12.70994,-59.24115,
413,Baker-Woods Clin,Hospital,St. George,390.0,2021-12-13,,,,Needs upgrade
9c0c31,"Baldwin,-Anderson-And-Dodson Infirmary",Polyclinic,St. Joseph,103.0,2020-09-16,,,,♥
415,"Baldwin,-Flowers-And-Miller Polyclinic",Other,St. Andrew,,2024-04-02,,13.20764,-59.03554,
416,"Baldwin,-Murphy-And-Graham Hosp",Other,St. John,335.0,2018-05-10,,12.7966,-59.03032,-
417,Ball Inc,Polyclinic,St. John,,2021-07-02,,,,Needs upgrade
418,Ball Ltd Medical Center (Ycul),Community Health Centre,St. Lucy,,2017-10-17,2023-11-28,13.05101,-58.99042,Follow-up 2023
#8598,Ball Plc Polyclinic,Unknown,St. Lucy,44.0,2019-04-12,,13.05383,-59.05367,Good
HF-0496,"Ball, Acosta And Juarez Hospital",Clinic,St. Joseph,424.0,2018-03-16,,13.29571,-59.27801,Good
02550,"Ball,-Brown-And-Crawford Hospital",Clinic,St. George,262.0,2016-08-10,,13.27707,-59.13342,
422,Ball-Berry Hosp,Unknown,St. James,190.0,2023-08-29,,,,Good
6772,Ball-Inc,Clinic,St. Michael,468.0,2017-04-10,,13.10867,-59.08611,Good
HF-6337,Ball-Scott Medical Center,Unknown,St. Peter,474.0,2024-12-24,2019-01-12,12.9435,-59.12291,
4058,Ball-Young Clinic,Hospital,St. John,187.0,2018-03-09,,12.89134,-58.83343,
6749,"Ballard, Rhodes And Greene Hosp",Clinic,St. James,414.0,2018-03-29,,13.00747,-58.82319,Good
05797,"Ballard, Salinas And Sanders Hosp",Community Health Centre,St. John,119.0,2023-01-03,,13.10633,-59.00904,Follow-up 2023
428,Ballard-Carpenter,Unknown,Christ Church,66.0,2022-09-05,,13.19365,-59.25112,Good
03975,Ballard-Jackson,Unknown,St. George,315.0,2017-06-04,,12.74453,-59.13856,
430,Ballard-May Polyclinic,Community Health Centre,St. James,,2021-12-03,,13.27101,-58.78387,Reinspection due
431,Ballard-Patterson,Community Health Centre,St. Peter,10.0,2016-02-22,,12.80461,-59.24372,Good
HF-1783,Ballard-Watson Infirmary,Community Health Centre,St. Lucy,173.0,2017-07-26,2019-10-19,13.08647,-58.71275,
f01aac,Banks Llc Polyclinic,Community Health Centre,Christ Church,313.0,2020-09-03,,12.92221,-58.91632,Good
434,Banks Plc Health Centre,Hospital,Christ Church,309.0,2020-01-12,,,,Good
435,"Banks, Chavez And Moran",Community Health Centre,St. Peter,236.0,2021-08-19,,13.12444,-59.14647, 
436,"Banks,-Fisher-And-Hancock Polyclinic",Hospital,St. James,36.0,2016-08-21,,12.9866,-59.03165,♥
179ced,"Banks,-Hill-And-Jimenez",Hospital,St. John,486.0,2023-08-14,,,,Reinspection due
8590,Banks-Fletcher,Polyclinic,St. Joseph,254.0,2019-07-22,,,,Reinspection due
439,Banks-Torres,Polyclinic,St. Andrew,,2016-06-27,2024-02-29,12.97699,-58.77281,
9524,Banks-West Clinic,Polyclinic,St. George,136.0,2023-05-29,,12.93045,-58.9376,Good
441,Barajas Plc,Hospital,St. John,274.0,2021-10-25,,13.20435,-59.01214,
HF-3254,Barajas-Group,Unknown,St. Andrew,473.0,2016-01-30,2022-11-12,12.71805,-59.08088,
#6052,Barber And Sons Hospital,Clinic,St. Lucy,211.0,2025-03-19,2023-12-02,13.2743,-58.90585,Needs upgrade
00933,Barber Llc Infirmary,Clinic,St. James,36.0,2022-08-30,,13.05657,-59.17255,
445,Barber Llc Polyclinic,Clinic,St. Joseph,257.0,2021-03-04,2021-02-26,13.10158,-59.00301,
08891,Barber Plc Hosp,Polyclinic,St. Joseph,281.0,2023-01-18,,13.11823,-58.89483,Follow-up 2023
447,"Barber,-Davis-And-Pham Medical Center",Community Health Centre,St. Peter,444.0,2020-02-04,,13.00797,-58.99946,-
06608,Barber-Diaz Clinic,Hospital,St. George,10.0,2024-11-07,2021-09-07,12.72168,-59.01962, 
#777,Barber-Llc Health Centre,Polyclinic,St. Joseph,,2020-05-30,2021-07-22,,,Good
450,Barker And Sons Clinic,Polyclinic,St. John,407.0,2018-09-27,,12.87227,-59.13008,♥
451,Barker Plc Infirmary,Unknown,St. George,,2022-03-07,,13.18898,-58.93667,Needs upgrade
HF-7555,"Barker, Armstrong And Green",Hospital,St. Peter,,2018-03-02,,12.90118,-59.23803,
453,"Barker, Dunn And Davila Health Centre",Polyclinic,St. Lucy,409.0,2025-06-21,,,,Reinspection due
454,"Barker, Pennington And Mccormick Infirmary",Hospital,St. Lucy,,2019-07-29,,,, 
455,Barker-Black Health Centre,Polyclinic,St. George,10.0,2024-01-10,,12.82877,-58.76708,Reinspection due
883,Barker-Mendez Hosp,Clinic,Christ Church,490.0,2018-10-12,,,,-
457,Barnes Group Health Centre,Clinic,St. Joseph,433.0,2022-10-14,2021-11-03,12.88094,-58.8298,
02791,Barnes Group Infirmary,Community Health Centre,St. John,73.0,2018-04-29,,13.00589,-59.25265,
459,Barnes Llc Polyclinic,Community Health Centre,St. Peter,10.0,2016-07-30,,,,Reinspection due
460,Barnes Ltd Health Centre,Polyclinic,St. Michael,388.0,2021-02-12,,,,
461,"Barnes, Chapman And Meyers Hospital",Hospital,St. Peter,185.0,2016-07-02,,13.16985,-58.96847, 
462,"Barnes, Richardson And Leonard Hosp",Hospital,St. Joseph,242.0,2024-11-19,,12.85921,-59.11794,Follow-up 2023
#6594,"Barnes,-Martinez-And-Moore Polyclinic",Hospital,St. Lucy,79.0,2024-05-28,,13.11562,-59.24961,♥
2e8d92,"Barnes,-Odonnell-And-Peters Hospital",Community Health Centre,St. Peter,91.0,2020-12-11,,13.06183,-59.24052,-
465,"Barnes,-Owens-And-Mathis Polyclinic",Clinic,St. Peter,10.0,2023-11-03,,,, 
466,"Barnes,-Robinson-And-Burgess Hospital",Community Health Centre,St. George,47.0,2016-12-28,,12.92285,-58.85386,♥
HF-5281,"Barnes,-Walsh-And-Ross Hosp",Unknown,St. George,10.0,2018-05-03,,12.97183,-59.18724,Good
08156,Barnes-Burns,Community Health Centre,St. John,,2022-07-22,,12.79047,-58.95258,Reinspection due
591616,Barnes-Group Clin,Hospital,St. James,121.0,2016-10-11,,,, 
5381,Barnes-Jenkins Hosp,Hospital,St. Peter,101.0,2025-04-02,2024-11-02,13.27037,-58.91853,-
071,Barnes-Mccarty,Unknown,St. James,246.0,2023-02-04,2021-10-09,,,-
#9513,Barnes-Perez Medical Center,Hospital,St. Andrew,343.0,2018-05-07,,12.87407,-59.06687,
#8413,Barnes-Silva,Community Health Centre,St. Lucy,10.0,2022-03-23,2018-11-06,12.99034,-58.94944,Follow-up 2023
474,Barnes-Stone Infirmary,Hospital,St. Joseph,181.0,2022-01-22,,13.01683,-59.12927,
475,Barnett Inc Infirmary,Clinic,St. Lucy,,2019-03-28,,13.24783,-59.22326,
476,"Barnett, Gordon And Davis Medical Center",Hospital,St. George,248.0,2020-06-23,2018-10-17,,,♥
HF-0192,"Barnett, Lee And Malone Hosp",Hospital,St. Andrew,10.0,2025-07-16,,13.15991,-59.23382, 
dc939d,"Barnett, Pitts And Riley Hosp",Other,St. Joseph,345.0,2022-01-04,,13.21351,-58.75799,Good
479,"Barnett, Shannon And Cole Medical Center",Hospital,Christ Church,333.0,2023-04-19,,12.96741,-58.84033,♥
9595,"Barnett, Smith And Mcmillan Health Centre",Clinic,St. Andrew,,2019-08-11,,12.92713,-59.24959,Needs upgrade
#657,"Barnett,-Brewer-And-Jones Health Centre",Clinic,St. George,191.0,2017-11-12,,12.76493,-58.76353,Follow-up 2023
HF-4548,Barnett-Francis Polyclinic,Unknown,St. Andrew,104.0,2023-04-21,,13.12151,-58.74205, 
#8339,Barnett-Hayes Hosp,Hospital,St. George,,2023-06-10,,12.89258,-59.18494,Reinspection due
3930,Barnett-Ward Clinic,Hospital,St. James,10.0,2022-12-26,,13.02575,-58.74898,♥
03968,Barnett-Washington,Community Health Centre,Christ Church,492.0,2023-06-27,,12.81111,-58.72882,Follow-up 2023
4011,Barr And Sons,Community Health Centre,St. Michael,65.0,2024-04-20,,12.70612,-58.73148,
#13,"Barr, Conley And Mendoza Clinic",Polyclinic,St. James,,2024-08-16,,13.17264,-58.87985,-
5506,"Barr, Turner And Manning",Hospital,St. Peter,298.0,2024-07-20,,,,♥
07888,Barr-Barker Medical Center,Unknown,St. Andrew,203.0,2017-11-07,,,,-
624b96,Barrera Group,Clinic,St. John,160.0,2024-07-28,,,,Good
#1541,Barrera Group Medical Center,Hospital,St. Peter,125.0,2025-11-25,,,,-
#8369,"Barrera, Johnson And Davenport Infirmary",Other,St. George,,2023-06-14,,,, 
493,"Barrera, Martinez And Meyer Polyclinic",Clinic,St. George,407.0,2020-03-30,,13.03876,-59.25059,
494,Barrera-Plc,Unknown,St. John,461.0,2022-09-18,,13.0684,-58.83106,Good
#3932,Barrett Inc Infirmary,Unknown,St. James,,2017-09-10,,,,♥
7771,Barrett Inc Medical Center,Polyclinic,St. George,462.0,2022-12-21,,13.28045,-59.2479,Follow-up 2023
608,"Barrett, Ellis And Webb Medical Center",Clinic,St. John,205.0,2025-12-19,,,, 
09387,"Barrett, Kaufman And Ramirez Health Centre",Clinic,St. Andrew,,2025-11-01,,13.0834,-59.04168,Follow-up 2023
499,"Barrett,-Bowen-And-Davis Health Centre",Polyclinic,St. George,10.0,2021-01-12,,12.95666,-59.24396,Needs upgrade
08d6f3,"Barrett,-Johnson-And-Mathews Health Centre",Clinic,Christ Church,10.0,2023-01-15,,,,-
06166,Barrett-Cohen,Hospital,St. Peter,159.0,2025-04-19,2020-10-24,12.89256,-59.29462,♥
502,Barrett-Harris,Hospital,St. Michael,,2019-10-20,,,,Follow-up 2023
#5081,Barrett-Moreno Polyclinic,Unknown,Christ Church,,2022-03-21,,12.95785,-59.00699,♥
504,Barrett-Ramirez Clin,Community Health Centre,St. Andrew,,2016-08-26,,13.0769,-59.19784,-
HF-0347,Barrett-Simpson Medical Center,Community Health Centre,St. Michael,10.0,2023-09-03,,12.86586,-58.71558, 
05848,Barron Ltd Polyclinic,Community Health Centre,St. James,,2019-07-19,,12.90071,-59.24981,Good
507,"Barron,-Cox-And-Watkins Health Centre",Clinic,St. Andrew,24.0,2021-12-10,,,, 
508,Barron-Jefferson,Other,St. Peter,77.0,2017-10-14,,,,Needs upgrade
#2466,Barron-Rios,Community Health Centre,St. Peter,,2016-03-21,,,,Reinspection due
HF-9126,Barry Inc,Hospital,St. Andrew,213.0,2017-12-29,,13.10524,-58.82999,Follow-up 2023
HF-2859,Barry Ltd Polyclinic,Community Health Centre,St. Joseph,,2020-08-13,,12.96572,-59.1173,
6413,Barry-Livingston,Community Health Centre,St. Joseph,,2025-02-28,,13.0006,-59.29705,
02174,Bartlett Llc,Hospital,Hcruhc Tsirhc,10.0,2021-06-13,2022-11-13,12.7281,-59.08579,Needs upgrade
04063,"Bartlett, Taylor And Bennett Clinic",Community Health Centre,St. George,,2022-09-12,2019-12-16,13.22572,-58.79333,
HF-4275,Bartlett-Marquez,Clinic,St. Peter,85.0,2023-03-03,,13.15815,-59.18129,Follow-up 2023
516,Barton Group Infirmary,Clinic,St. Peter,,2018-08-10,,,,Good
516,Barton Ltd,Unknown,St. Peter,37.0,2019-09-19,,13.08436,-59.00439,Needs upgrade
8440,Barton Ltd,Unknown,St. Michael,140.0,2021-08-21,,13.05375,-58.71933,♥
4796,"Barton, Brown And Simpson",Clinic,St. George,88.0,2020-07-12,,,,♥
HF-8184,"Barton, Bryant And Smith",Community Health Centre,St. John,314.0,2025-03-01,,,,-
eb24a7,"Barton, Walter And Miller Clinic",Unknown,St. George,454.0,2021-06-12,,13.28219,-59.07606, 
#632,Barton-Romero Clinic,Hospital,Christ Church,,2021-05-11,,,,
7ca2f2,Bass Ltd Polyclinic,Unknown,St. Lucy,,2016-01-31,,12.87892,-59.10512,Good
7393fd,"Bass, Hall And Cline Hospital",Clinic,St. James,10.0,2023-08-14,,12.87761,-58.77984, 
3f788f,Bass-Bird Polyclinic,Community Health Centre,St. Lucy,,2020-06-23,2025-03-04,,,Reinspection due
06555,Bass-Porter Hosp,Unknown,St. Michael,47.0,2022-12-09,,,, 
527,Bates And Sons Hosp,Community Health Centre,St. George,,2020-12-14,2024-05-18,12.84192,-59.11966,-
4823,Bates Group,Other,Christ Church,425.0,2016-11-20,,,,♥
HF-8305,Bates Llc Health Centre,Polyclinic,St. Lucy,,2019-03-09,,13.27355,-58.71055,Good
HF-3368,"Bates, Peters And Wade Hosp",Community Health Centre,St. James,133.0,2017-04-10,2025-12-25,,,Reinspection due
03759,Bates-Edwards,Community Health Centre,St. Joseph,,2024-07-01,,,,Needs upgrade
532,Bates-Foster,Community Health Centre,St. George,419.0,2022-05-24,,,,♥
02047,Bates-Hartman Health Centre,Other,St. Lucy,123.0,2023-01-12,2020-06-21,13.2434,-58.81391,-
b86eb4,Bates-Myers,Community Health Centre,St. Joseph,142.0,2025-12-29,,12.90594,-59.03447,Reinspection due
#4636,Bauer And Sons Hosp,Clinic,St. Joseph,353.0,2021-10-20,,,,♥
28ddff,Bauer And Sons Polyclinic,Clinic,St. Lucy,10.0,2018-10-31,,13.13174,-58.76762,Needs upgrade
#2039,Bauer Group Polyclinic,Polyclinic,St. Michael,105.0,2021-03-02,,13.1926,-58.98307,Reinspection due
538,Bauer Ltd,Community Health Centre,St. John,10.0,2016-10-11,2025-04-30,12.86984,-59.23401,Reinspection due
539,Bauer Plc Hosp,Clinic,St. George,440.0,2018-01-13,2019-06-08,,,-
#6637,Bauer-Mitchell Hosp,Hospital,St. Lucy,331.0,2018-03-01,,13.26115,-59.25813,Needs upgrade
d1b158,Bauer-Scott Polyclinic,Clinic,St. John,322.0,2019-02-17,,12.81718,-59.12735,Needs upgrade
542,Bauer-Strong,Community Health Centre,Christ Church,462.0,2017-01-08,,13.21175,-59.15744,Good
2998ae,Bautista Inc,Community Health Centre,St. George,117.0,2018-09-18,,12.73521,-58.82212,
5308,Bautista-Ltd,Unknown,St. Andrew,,2024-06-18,,13.08841,-58.77807,Needs upgrade
215,Bautista-Wilson Health Centre,Polyclinic,St. Lucy,10.0,2020-09-17,2021-01-19,13.09899,-58.72884,Follow-up 2023
546,Baxter And Sons,Polyclinic,St. Peter,422.0,2025-12-04,,,,Follow-up 2023
e9ba3c,Baxter Group Infirmary,Clinic,Hcruhc Tsirhc,335.0,2023-09-05,,12.98342,-58.98909, 
9506,"Baxter, Campos And Ruiz Hospital",Community Health Centre,St. Andrew,,2024-01-14,,12.9845,-58.98959, 
83e67e,"Baxter,-Flores-And-Castillo Health Centre",Unknown,St. George,18.0,2017-08-23,2018-02-19,13.01927,-59.07356,Good
HF-1129,Baxter-Juarez Clinic,Community Health Centre,St. Andrew,349.0,2025-05-31,,13.21164,-59.11755,
8b45c3,Bean Inc Clinic,Community Health Centre,St. Peter,191.0,2019-05-10,,,,
00050,"Bean, Colon And Baird Infirmary",Clinic,St. Lucy,,2024-03-22,,,,♥
HF-9337,Beard Inc Hosp,Community Health Centre,St. Michael,300.0,2017-08-31,,,,
554,"Beard, Clarke And Ross Medical Center",Other,St. Peter,321.0,2022-05-09,2022-02-27,13.03357,-58.88508,Good
07559,"Beard, Oneal And Knox",Community Health Centre,St. Michael,,2016-10-07,,,, 
139d9e,"Beard,-Johnson-And-Frazier",Clinic,St. Peter,,2022-07-30,,12.83547,-59.03092,Reinspection due
ad490c,Beard-Mitchell Hospital,Other,St. John,392.0,2016-07-15,,12.89282,-59.10199,Follow-up 2023
558,"Beasley, Ross And Doyle Hosp",Clinic,St. Andrew,10.0,2023-08-07,,12.89357,-59.14851, 
559,Beck Llc,Community Health Centre,St. James,291.0,2021-03-04,,13.24382,-59.1564,♥
560,"Beck, Briggs And Wiggins Hosp",Polyclinic,St. James,,2016-12-03,,13.20325,-58.96718,Needs upgrade
07265,"Beck, Owens And Lopez Medical Center",Unknown,St. James,64.0,2024-10-24,,13.05895,-58.72803,Good
HF-0800,Beck-Adams,Polyclinic,St. Peter,,2019-05-25,,,,♥
02815,Beck-Stone Clinic,Hospital,St. Peter,84.0,2018-01-10,,13.22824,-58.87787, 
#1606,"Becker, Alvarez And Tapia Medical Center",Unknown,St. Peter,,2025-07-07,,12.90482,-58.81424,-
565,"Becker, Miranda And Moody Hosp",Polyclinic,St. Joseph,286.0,2018-07-15,,13.13335,-59.16818,-
05850,"Becker, Payne And Garza Hospital",Community Health Centre,St. Michael,484.0,2017-09-09,,12.71529,-59.13241,Needs upgrade
567,"Becker, Silva And Taylor Infirmary",Community Health Centre,St. George,88.0,2019-07-17,,12.8802,-59.23634,Reinspection due
568,"Becker, Vega And Wright Polyclinic",Clinic,St. James,,2022-11-17,,,,-
e762e7,"Becker,-Henderson-And-Smith Hosp",Clinic,St. John,,2018-02-09,,13.01304,-58.95112,-
570,"Becker,-Lopez-And-Lawrence Clin.",Clinic,St. George,19.0,2025-09-07,,12.94963,-59.12799,-
HF-1659,Becker-Bailey Hosp,Polyclinic,Christ Church,254.0,2024-06-21,2023-05-26,12.88597,-59.13961,Good
#223,Becker-Fernandez Medical Center,Unknown,St. Peter,495.0,2023-05-27,,12.84023,-58.73843,
573,Becker-Parker Hospital,Unknown,St. Peter,13.0,2020-01-19,2023-10-04,13.16293,-58.7445,♥
bd679c,Becker-Parker Medical Center,Community Health Centre,St. John,227.0,2023-07-21,,13.19152,-58.77003,
5410,Bell Inc,Unknown,St. Andrew,,2023-10-28,,13.17672,-59.06914,♥
05012,Bell Inc Hosp,Hospital,St. Lucy,,2017-02-01,,,,♥
HF-8119,Bell Llc Hospital,Community Health Centre,St. James,232.0,2025-09-18,,13.11833,-58.72057,Reinspection due
578,Bell Ltd,Polyclinic,St. Lucy,,2023-08-18,2019-03-31,,,
579,Bell Plc,Other,St. John,,2018-06-18,,12.73423,-58.96281,Needs upgrade
2df7fe,"Bell, Anderson And Adams",Community Health Centre,St. Joseph,10.0,2020-07-11,,13.05396,-59.16967,
4355,"Bell, Barnes And Harrington Polyclinic",Community Health Centre,St. Michael,345.0,2017-05-06,,12.84178,-58.7439,♥
02032,"Bell, Burke And Townsend Clinic",Clinic,St. Peter,176.0,2020-01-27,,12.74408,-58.8106,Reinspection due
583,"Bell, Clark And Callahan Infirmary",Polyclinic,St. James,173.0,2018-01-07,,13.15782,-59.17755,Reinspection due
04907,"Bell, Fisher And Wright",Community Health Centre,St. Andrew,300.0,2023-12-14,,,,Good
#7523,"Bell, Harrington And Pearson Clinic",Other,Christ Church,150.0,,,12.72523,-58.74274,-
07701,"Bell, Perez And Flores Clin",Community Health Centre,Christ Church,58.0,2025-07-01,2019-12-06,,,-
1010,"Bell,-Clark-And-Bauer Polyclinic",Community Health Centre,St. Andrew,97.0,2016-11-07,2022-11-07,13.01204,-58.93253,Follow-up 2023
588,"Bell,-Holmes-And-Wilson",Clinic,St. Michael,18.0,2019-11-07,,12.73825,-58.72343, 
#7820,"Bell,-Miller-And-Spencer",Community Health Centre,St. George,342.0,2020-01-04,,12.81849,-59.01023,
#149,Bell-And-Sons Infirmary,Unknown,St. Joseph,,2022-02-07,,13.08021,-58.9693,-
591,Bell-Farrell Infirmary,Community Health Centre,St. Joseph,163.0,2016-08-11,,12.99348,-59.03368,Follow-up 2023
1672,Bell-Fields Infirmary,Clinic,Christ Church,176.0,2021-04-27,,12.93325,-58.83199,
5433,Bell-Fleming,Hospital,St. Peter,,2021-08-27,,,,
2857,Bell-Llc Health Centre,Hospital,St. George,320.0,2020-05-15,,,,Follow-up 2023
b4020e,Bell-Mcdaniel Hosp,Unknown,St. James,308.0,2016-07-15,,,,
HF-8319,Bell-Perez Polyclinic,Clinic,St. Lucy,,2025-09-12,2022-04-08,,,Good
5027,Bell-Rios Clinic,Clinic,St. Joseph,,2021-12-04,2025-04-14,,,Reinspection due
598,Bell-Soto Health Centre,Community Health Centre,St. Lucy,116.0,2025-08-09,,13.01921,-58.95084, 
#900,Bell-Wood Polyclinic,Clinic,Christ Church,,2019-02-27,,12.99297,-59.13827,Reinspection due
#6837,Beltran Group,Clinic,St. Michael,,2019-12-27,,12.79814,-58.82795,
#8152,"Beltran, Simon And Carney",Community Health Centre,St. George,,2016-09-07,,12.75175,-59.29788,Good
#1990,Bender And Sons Clin,Polyclinic,St. Michael,396.0,2022-08-31,2025-01-07,13.12988,-59.00876,Needs upgrade
08455,"Bender, Lee And Owens",Unknown,St. Lucy,,2019-08-16,,12.86768,-59.19061, 
6906,Bender-Clarke Clinic,Unknown,St. John,92.0,2023-02-22,,,,Needs upgrade
HF-1082,Benitez Inc Polyclinic,Clinic,St. Joseph,495.0,2016-05-12,,13.13294,-58.84183,Follow-up 2023
HF-6090,Benitez-Mckay,Polyclinic,St. Peter,,2022-09-29,,13.06174,-58.92498,Follow-up 2023
HF-2862,Benjamin Group,Polyclinic,St. Joseph,,2017-07-10,,13.22987,-59.05903,Follow-up 2023
b98a8c,Benjamin Inc Medical Center,Polyclinic,St. Peter,10.0,2023-06-28,,,,Reinspection due
609,"Benjamin, Stevens And Walter Polyclinic",Unknown,St. James,290.0,2016-09-13,2021-06-11,,,-
7743,Benjamin-King Health Centre,Clinic,St. Joseph,,2024-03-16,,,,
7697,Benjamin-Thomas Hospital,Community Health Centre,St. Lucy,,2022-04-11,,13.02577,-59.06103,♥
#9248,Bennett Group,Unknown,St. Andrew,360.0,2017-12-24,,13.03106,-59.07183,♥
8899,Bennett Group,Other,St. Peter,482.0,2017-12-20,,,,♥
5940,Bennett Inc,Clinic,St. George,182.0,2016-08-27,,,,♥
02684,Bennett Inc Hosp,Community Health Centre,Christ Church,32.0,2023-05-21,,12.94252,-58.9529,Reinspection due
#1407,Bennett Llc Hosp,Unknown,St. George,,2024-02-17,,,,♥
6600,Bennett Llc Hosp,Clinic,St. Michael,10.0,2016-11-24,2018-11-06,13.16311,-59.00323,♥
02667,Bennett Plc,Polyclinic,Christ Church,,2024-01-09,,13.01381,-58.78068,Reinspection due
02906,Bennett Plc Hosp,Other,St. James,68.0,2017-04-29,2019-05-28,12.99214,-58.91657, 
#5010,Bennett Plc Medical Center,Clinic,St. Michael,389.0,2021-04-09,,12.99658,-58.79033,♥
621,"Bennett, Brown And Vang Hospital",Polyclinic,St. Lucy,97.0,2022-06-14,,,,Follow-up 2023
06725,"Bennett, Estrada And Reese Infirmary",Community Health Centre,St. Michael,,2020-02-04,,,,Reinspection due
HF-6880,"Bennett, Ray And Douglas Medical Center",Polyclinic,St. Lucy,331.0,2016-12-08,,,,Needs upgrade
624,Bennett-Inc,Polyclinic,St. Lucy,10.0,2017-12-01,2020-10-29,12.83644,-59.19313,♥
a58431,Bennett-Llc Hospital,Hospital,St. Joseph,317.0,2024-08-05,,13.27114,-58.72256,Good
#5076,Bennett-Mooney Clinic,Community Health Centre,St. Michael,215.0,2019-09-02,,,,-
#2065,Bennett-Shaw Hosp,Clinic,St. Michael,56.0,2016-07-06,,13.25113,-58.98424,Reinspection due
6e2f2f,Bennett-Tucker,Clinic,St. Joseph,131.0,2018-10-18,,,, 
c64152,Benson Group Infirmary,Community Health Centre,St. James,204.0,2021-06-26,,12.8123,-59.25918,Reinspection due
08962,Benson Ltd Clinic,Clinic,St. George,163.0,2021-12-17,,,,Needs upgrade
631,Benson Plc,Unknown,St. Joseph,,2016-09-09,,,,Needs upgrade
491d1a,"Benson, Cain And Adams Health Centre",Community Health Centre,St. George,,2020-02-24,2024-09-16,12.98363,-58.80083,
#6120,"Benson, Lewis And Gonzalez Clinic",Community Health Centre,St. James,,2022-02-06,,12.80182,-58.88595,
634,"Benson, Norton And Sanchez Infirmary",Clinic,St. John,10.0,2022-01-12,,,,
af2648,"Benson,-Lara-And-Stephens Hosp",Community Health Centre,St. Joseph,,2020-12-06,,,,
04985,Benson-Phillips Polyclinic,Hospital,St. Peter,91.0,2023-06-21,2022-09-18,12.92918,-59.20471,-
05361,Benson-Williams Hospital,Polyclinic,St. Lucy,,2023-03-16,,12.94859,-58.98069,Follow-up 2023
638,"Bentley, Jordan And Mooney",Clinic,St. Lucy,,2022-03-15,,12.88022,-59.01102,♥
029,"Bentley, Scott And Graves Clinic",Unknown,St. Joseph,,2019-12-22,,13.24629,-58.98848,-
4494,"Bentley,-Edwards-And-Lopez Medical Center",Clinic,St. Michael,388.0,2017-02-16,2021-08-31,,,Reinspection due
7553,"Bentley,-Johnson-And-Chavez Health Centre",Unknown,St. John,167.0,2017-07-26,,,,♥
HF-5340,Berg Group,Hospital,St. James,,2021-09-27,,13.10351,-59.06756,
643,Berg-Williams,Community Health Centre,St. Andrew,443.0,2019-04-28,,12.95618,-59.07742, 
HF-2956,"Berger, Gonzalez And Spencer",Polyclinic,St. Joseph,348.0,2016-10-25,,13.0949,-59.06224,Follow-up 2023
#2987,Berger-Mitchell Hospital,Clinic,Christ Church,10.0,2019-04-23,,12.74833,-58.75707,
HF-8971,Bernard Ltd,Community Health Centre,St. James,333.0,2018-10-17,,12.9259,-58.79759,Needs upgrade
9022,Bernard-Clark Medical Center,Hospital,St. John,128.0,2025-07-26,,,,♥
9028,Bernard-Inc Hosp,Community Health Centre,St. George,140.0,2020-08-25,,13.18131,-58.8691,Good
326,Bernard-Simpson Health Centre,Other,St. Andrew,383.0,2020-03-22,,,,Needs upgrade
40048e,Berry Ltd,Clinic,St. Andrew,,2017-11-22,,13.04187,-58.89992,Follow-up 2023
HF-2751,"Berry, Adkins And Sutton Polyclinic",Unknown,St. Michael,290.0,2020-08-10,,,,Follow-up 2023
652,"Berry, Lopez And Jackson Hosp",Clinic,St. Andrew,,2021-03-10,2022-12-21,13.07891,-59.05838,Needs upgrade
9691,"Berry, Mullen And Wilcox Hospital",Hospital,St. John,416.0,2019-03-27,,12.81723,-58.92755,Reinspection due
546498,"Berry, Ruiz And Santos Hospital",Unknown,St. George,10.0,2025-05-15,,12.70163,-59.27502,Good
655,Berry-And-Sons,Community Health Centre,St. Lucy,209.0,2016-08-23,,13.16837,-59.22894,Follow-up 2023
#3816,Berry-Burnett,Polyclinic,St. Andrew,428.0,2022-03-04,,12.88114,-58.96783,-
01416,Berry-Lester,Community Health Centre,St. John,375.0,2019-06-12,,13.25739,-59.05669, 
07074,Berry-Ltd Hosp,Other,St. Andrew,,2021-03-09,,,,Needs upgrade
051f05,Berry-Williams Hospital,Community Health Centre,St. George,,2019-08-24,,,,-
4beece,Best Inc Hosp,Clinic,St. Andrew,406.0,2019-08-30,,,,♥
06621,"Best, Bates And Gordon",Community Health Centre,St. Peter,,2020-02-09,,,,♥
#208,Best-Frederick Clinic,Community Health Centre,Christ Church,358.0,2024-12-25,,13.03765,-59.26609,
663,Best-Inc,Clinic,St. George,,2016-06-14,2018-06-30,13.19919,-58.72885,Follow-up 2023
7bde6d,Best-Rodriguez Hosp,Hospital,St. James,364.0,2024-05-03,,13.01064,-59.07496,Good
665,Bird Group Hosp,Community Health Centre,St. George,,2018-03-05,,,,Needs upgrade
HF-3701,Bird Group Medical Center,Polyclinic,St. James,255.0,2020-01-07,,13.158,-58.97223,
#5557,Bird-Allen Hosp,Unknown,St. Peter,335.0,2018-09-04,,13.07986,-58.76668,Follow-up 2023
5520,Bird-Bell Medical Center,Clinic,St. Lucy,10.0,2021-09-29,,13.03324,-59.04063,
669,Bird-Ferguson,Community Health Centre,St. Andrew,10.0,2022-03-26,,,, 
HF-1237,Bishop Inc,Hospital,St. John,,2025-10-06,,12.7027,-59.03029,Reinspection due
09672,Bishop Ltd Hosp,Unknown,St. Lucy,,2022-06-19,2020-05-26,12.77918,-58.89874,Reinspection due
HF-8935,"Bishop, Baldwin And Barber Infirmary",Polyclinic,St. James,133.0,2025-01-30,,13.28257,-59.21175,
04394,"Bishop, Hanna And Page Medical Center",Community Health Centre,St. Andrew,52.0,2016-05-07,2025-12-30,12.70321,-59.08708,Good
1904,"Bishop, Mendoza And Peterson Clinic",Unknown,St. Lucy,,2024-05-29,,13.15544,-59.03674,Needs upgrade
37c176,"Bishop, Ortega And Walker Infirmary",Hospital,St. Andrew,,2021-06-24,,12.76086,-58.98414,Good
676,"Bishop,-Porter-And-Sellers",Polyclinic,St. Peter,10.0,2017-06-29,,12.73158,-58.99418, 
08888,Bishop-Klein,Clinic,St. Michael,328.0,2018-03-02,2020-05-11,13.10217,-59.14729,Reinspection due
678,Bishop-Lester,Clinic,St. George,34.0,2022-11-25,,12.91688,-58.75224,Reinspection due
679,Bishop-Phelps,Clinic,St. James,202.0,2020-04-01,,,,
HF-8196,Black And Sons Clinic,Community Health Centre,Christ Church,10.0,2023-06-23,,12.97635,-58.76401,Reinspection due
09792,Black And Sons Polyclinic,Polyclinic,St. George,,2016-12-08,2021-06-21,,,
2782,Black Llc,Community Health Centre,St. John,,2016-11-28,,12.95639,-58.895,
HF-7496,"Black, Johnson And Hawkins Infirmary",Other,St. Andrew,,2021-05-07,,13.25617,-58.9503,Good
684,"Black, Rivera And Lam Medical Center",Other,St. Joseph,475.0,2025-08-12,2025-07-28,12.78679,-59.26929,
685,Black-Anderson Health Centre,Hospital,St. Peter,331.0,2019-10-02,,,,♥
d3769a,Black-Bush Health Centre,Other,St. John,,2020-06-14,,13.01531,-59.28992,Good
00282,Black-Clayton Medical Center,Other,St. Joseph,,2024-02-26,2023-01-03,,,
8090,Black-Davis Clin,Unknown,St. George,164.0,2022-12-26,,,,-
#2053,Black-Group Clinic,Unknown,Christ Church,476.0,2019-12-30,,12.78267,-58.93066,♥
#1624,Black-Johnson,Clinic,St. Lucy,389.0,2020-11-19,2023-07-14,13.00764,-59.09126,Reinspection due
f7dcf6,Black-Ltd,Hospital,St. George,,2020-01-15,,13.15048,-59.2406,Reinspection due
692,Black-Reed,Polyclinic,St. Peter,269.0,2023-03-07,,,,Good
HF-1512,Black-Rose,Community Health Centre,St. Michael,203.0,2020-10-07,2023-05-17,12.86434,-58.72968,
HF-0814,Black-Velasquez Hospital,Unknown,St. John,401.0,2017-05-10,,12.82184,-58.70955,♥
695,Blackburn And Sons Health Centre,Hospital,St. Michael,123.0,2023-10-19,,12.97668,-59.26702,Reinspection due
7372,Blackburn Ltd,Clinic,St. James,,2017-10-22,,,,Reinspection due
08696,Blackburn Plc,Hospital,St. Lucy,407.0,2020-12-13,,12.81869,-59.10871,♥
HF-1123,"Blackburn, Burke And Kline Hospital",Clinic,St. Andrew,104.0,2021-11-06,,,,Reinspection due
699,"Blackburn, Knight And Franklin Health Centre",Community Health Centre,St. Michael,484.0,2024-05-30,,12.98128,-59.15765,Needs upgrade
4648,Blackburn-Foster Hosp,Clinic,Christ Church,317.0,2016-12-31,,12.83166,-58.9491,Needs upgrade
249,Blackburn-Garrett Hospital,Community Health Centre,Christ Church,42.0,2020-11-02,,13.06359,-59.18586,♥
4776,Blackburn-Velazquez Polyclinic,Community Health Centre,St. Michael,280.0,2019-11-19,,12.95587,-59.02243,
00859,Blackwell Group,Polyclinic,St. John,127.0,2016-12-09,,12.89973,-58.75476,
704,"Blackwell, Guzman And Cooper Polyclinic",Hospital,St. James,10.0,2019-04-06,,,,
fabc8a,"Blackwell, Jones And Davis Hosp",Community Health Centre,St. Lucy,468.0,2017-07-04,2020-09-28,,, 
00903,Blair And Sons Infirmary,Hospital,St. Peter,,2017-04-19,,,,Follow-up 2023
#7166,"Blair, Burke And Shaw Medical Center",Community Health Centre,St. James,,2019-12-03,,12.70466,-58.7164,Follow-up 2023
708,"Blair, Martin And Harmon Clinic",Community Health Centre,St. George,10.0,2025-05-02,,13.10689,-59.17149,♥
2e419b,"Blair, Simmons And Castaneda Medical Center",Community Health Centre,St. George,415.0,2019-07-21,,13.11939,-58.92636,Needs upgrade
3308,"Blair, Walker And Wright",Hospital,St. Michael,273.0,2023-10-05,,13.07364,-59.13104,
1152,"Blair,-Black-And-Johnson Clinic",Clinic,St. Peter,10.0,2017-12-31,,,,
edbe30,Blair-Gutierrez Medical Center,Community Health Centre,St. Michael,500.0,2018-11-21,,,,-
HF-3847,Blair-Oliver Polyclinic,Community Health Centre,St. Andrew,365.0,2020-07-13,,,, 
bdbd11,Blake Ltd Hosp,Community Health Centre,St. James,,2016-03-25,,12.96049,-59.11911,Good
09579,"Blake, Wright And Johnson (Ycul)",Unknown,St. Lucy,197.0,2016-11-11,,,,Follow-up 2023
716,Blake-Cummings Hospital,Polyclinic,St. James,,2019-04-15,2024-08-22,13.01775,-59.23841,-
717,Blake-Gonzalez Medical Center,Community Health Centre,St. John,91.0,2022-11-06,,13.24182,-59.17414, 
HF-6878,Blanchard And Sons Polyclinic,Clinic,St. Peter,318.0,2025-07-31,,,,
ca0a19,"Blanchard, Johnson And Johnson",Community Health Centre,St. James,269.0,2020-07-09,,,,Follow-up 2023
720,"Blanchard, Malone And Shepherd Hosp",Community Health Centre,St. Michael,398.0,2022-09-18,2022-12-02,,, 
#2410,"Blanchard, Martin And Calderon Infirmary",Clinic,St. Michael,,2023-10-29,,13.06441,-58.8211,♥
722,Blankenship Plc,Polyclinic,St. Andrew,10.0,2023-05-22,,,,
HF-5853,"Blankenship, Graham And White Polyclinic",Unknown,St. John,289.0,2024-04-20,,,,Good
724,Blankenship-Andrews,Hospital,St. James,10.0,2022-05-30,,,,-
#9583,Blankenship-Martin Hosp,Polyclinic,Christ Church,182.0,2020-07-26,,,,Follow-up 2023
HF-1077,Blevins-And-Sons Clin,Clinic,St. Lucy,,2023-07-28,,13.26797,-59.19801, 
640,Blevins-Black Infirmary,Unknown,St. James,88.0,2019-08-12,,,,♥
05626,"Bolton, Rodriguez And Castaneda",Community Health Centre,St. Peter,,2019-05-04,,,,Reinspection due
729,Bolton-Fields,Polyclinic,St. Peter,,2019-09-04,,12.72582,-58.75828,Reinspection due
730,Bolton-Parker Hospital,Hospital,St. Lucy,10.0,2017-02-18,,,,Needs upgrade
#7120,Bond Inc Hosp,Clinic,St. George,,2020-01-13,2018-11-09,12.80149,-58.88537,Reinspection due
#7384,Bond Llc Polyclinic,Community Health Centre,St. Andrew,276.0,2016-11-06,,13.28407,-58.87462,
08079,"Bond, Alvarez And Johnson",Hospital,St. Andrew,,2020-01-04,,12.79487,-59.24583,
#7399,Bond-Armstrong,Community Health Centre,St. John,,2017-09-17,2020-04-12,13.28498,-58.93684,Good
HF-4877,Bond-Llc,Polyclinic,St. Peter,478.0,2025-08-31,,12.90573,-59.07055,Reinspection due
7122,Bond-Nguyen,Polyclinic,St. Andrew,373.0,2016-05-17,,13.08916,-59.11845,Needs upgrade
05467,Bond-Plc Infirmary,Hospital,St. Peter,321.0,2017-01-31,,,,Follow-up 2023
2a19c7,Bonilla Llc,Polyclinic,St. Andrew,245.0,2017-09-30,2022-12-02,13.09446,-58.74524,
#2922,"Bonilla, Rogers And Hoffman Infirmary",Hospital,St. Michael,,2021-11-01,,12.84649,-58.99809,Needs upgrade
HF-9251,"Bonilla,-Evans-And-Mendez Infirmary",Polyclinic,Christ Church,10.0,2018-11-30,,,, 
741,Bonilla-Johnson,Clinic,St. Andrew,64.0,2017-01-12,,13.16319,-59.01665,
#9686,Booker Llc,Polyclinic,St. Michael,10.0,2016-07-30,,12.86328,-58.89331,Needs upgrade
HF-4086,Booker Ltd Hosp,Community Health Centre,St. Lucy,327.0,2024-06-24,,12.9297,-58.97638,Reinspection due
00511,Booker-Hill Medical Center,Clinic,St. George,,2019-01-06,2024-07-13,13.00114,-58.72846,Good
02605,Boone And Sons Clinic,Clinic,St. Michael,352.0,2025-02-24,,12.80646,-58.94763,♥
3171,"Boone, Lee And Anderson Hosp",Unknown,St. John,,2024-09-24,,13.15391,-58.82017,-
747,"Boone, Shah And Johnson Hospital",Clinic,St. Lucy,,2023-02-11,,12.99429,-59.26902,
748,"Boone, York And Morris",Clinic,St. Joseph,,2022-10-15,,13.04918,-59.12416,-
4718,Boone-Inc Medical Center,Unknown,St. Michael,,2025-05-17,2023-09-15,13.2066,-58.80127,Good
9378,Booth And Sons Medical Center,Polyclinic,St. John,376.0,2020-10-13,,12.94064,-59.08629,Good
03764,Booth Group,Community Health Centre,St. Michael,372.0,2022-03-29,,13.13979,-58.90622,
752,Booth Llc Infirmary,Community Health Centre,St. Andrew,51.0,2017-08-22,,13.01082,-59.08547,Needs upgrade
753,Booth Ltd Hosp,Community Health Centre,St. Michael,354.0,2022-12-07,,,,
754,"Booth, Navarro And Schroeder",Polyclinic,St. John,319.0,2021-08-26,2019-12-29,13.21735,-58.96722,Follow-up 2023
755,"Booth,-Murray-And-Valenzuela Clin",Hospital,St. Andrew,,2018-04-28,,12.90118,-59.22215,Good
756,Booth-Fuller Health Centre,Other,St. James,184.0,2019-01-02,,,,♥
#7823,Booth-Gomez,Clinic,St. James,269.0,2017-11-24,,,,Needs upgrade
01656,Booth-Watson,Hospital,St. Lucy,498.0,2022-07-08,,,,Reinspection due
282838,Bowen And Sons,Clinic,St. George,377.0,2022-02-16,,13.1455,-58.7942,Follow-up 2023
1502,Bowen Group Hosp,Hospital,St. James,375.0,2018-11-20,,12.91118,-59.02381,
f22c91,"Bowen, Curry And Neal Hospital",Clinic,St. Michael,10.0,2025-12-10,,13.21132,-58.79109,-
#577,"Bowen, Maddox And Thompson Hosp",Hospital,St. George,437.0,2018-11-10,,13.20568,-59.26268,Follow-up 2023
HF-8974,"Bowen,-Henderson-And-Frey Hosp",Hospital,St. Joseph,481.0,2022-09-21,,,,Good
09646,"Bowen,-Weaver-And-Kramer Medical Center",Hospital,St. Joseph,10.0,2017-06-14,,12.97384,-59.17271,Follow-up 2023
02453,Bowen-Giles,Clinic,St. John,302.0,2017-04-14,,13.05344,-58.92484, 
6349,Bowen-Hill Hosp,Polyclinic,St. Michael,475.0,2018-03-12,,12.93523,-59.01129,Reinspection due
702,Bowers Group Hospital,Polyclinic,St. George,144.0,2022-06-10,,13.0621,-58.77733,♥
4881,Bowers Ltd Infirmary,Clinic,St. Andrew,10.0,2021-11-10,2020-11-14,,,
HF-2908,Bowers-Martin Hosp,Other,St. John,,2021-09-25,,13.29939,-58.9933,Good
770,Bowers-Wilson Health Centre,Clinic,St. John,,2019-09-30,,12.73077,-59.19525, 
HF-7413,"Bowman,-Garrett-And-Spears",Community Health Centre,Christ Church,,2017-12-21,,12.79494,-59.1157,
d3e376,Bowman-Hardy Polyclinic,Unknown,St. John,156.0,2024-04-21,2022-07-07,13.0494,-58.79883,♥
5ff53b,Bowman-Lee Hosp,Community Health Centre,St. Lucy,300.0,2025-11-01,,12.8748,-58.71057,♥
774,Bowman-Nash,Clinic,St. Peter,424.0,2022-08-06,,13.14339,-59.17059,Needs upgrade
09647,Bowman-Plc,Community Health Centre,St. Andrew,438.0,2018-11-19,2024-01-12,,,
3282,Bowman-Wilkerson Medical Center,Polyclinic,St. Joseph,,2020-06-23,2022-11-27,,, 
777,Boyd Llc Health Centre,Clinic,St. George,13.0,2018-10-22,,13.14521,-59.05319,-
778,Boyd Llc Hosp,Other,St. John,270.0,2023-04-17,,,,Needs upgrade
HF-8595,Boyd Ltd Medical Center,Clinic,St. Joseph,,2021-01-20,,13.18104,-58.77013,
HF-4975,"Boyd, Fisher And Ramirez Hospital",Hospital,St. John,140.0,2018-12-28,2025-01-15,13.05167,-58.88961,-
HF-1055,"Boyd, Graham And Burnett",Polyclinic,St. Andrew,,2019-12-27,,,,Good
782,"Boyd, Neal And Moore Infirmary",Hospital,St. James,27.0,2016-04-03,,12.94823,-59.09622,Reinspection due
8ecbf5,"Boyd,-Davis-And-Elliott Medical Center",Polyclinic,St. Peter,146.0,2024-11-13,,13.05313,-58.87985,Needs upgrade
4571,Boyd-Bryant,Community Health Centre,St. Lucy,148.0,2022-06-17,,13.10953,-58.91653,Reinspection due
785,Boyd-Campbell,Hospital,St. Joseph,10.0,2019-12-13,,13.12291,-59.26681,Good
6719,Boyd-Campbell Hosp,Community Health Centre,St. John,156.0,2025-04-22,,12.70572,-58.94264,Follow-up 2023
#1627,Boyd-Group Clinic,Community Health Centre,St. James,,2021-12-18,,,,♥
HF-3438,Boyd-Guzman,Community Health Centre,St. John,240.0,2019-01-13,,,,Reinspection due
HF-3495,"Boyer,-Chandler-And-Perry",Unknown,St. Peter,10.0,2017-03-27,2024-03-24,13.19412,-59.03956, 
3021,Boyer-Adams Health Centre,Clinic,St. Andrew,,2022-07-26,,12.77015,-58.82876,-
791,Boyer-Martinez,Hospital,St. James,,2020-01-30,,12.82532,-58.8588,Good
792,Boyer-Maxwell Polyclinic,Community Health Centre,St. John,302.0,2021-08-03,,,,Needs upgrade
bd77a1,"Boyle, Griffin And Gonzales",Unknown,St. Andrew,10.0,2019-05-08,,,,Needs upgrade
HF-1780,Boyle-Ltd Hosp,Clinic,St. Lucy,10.0,2023-08-05,2024-05-13,13.05443,-58.72317,-
795,Bradford Inc,Hospital,Christ Church,10.0,2016-06-29,,,,-
796,"Bradford, Hughes And Holmes Polyclinic",Community Health Centre,St. George,,2018-03-08,,12.95188,-58.76961,
9379,"Bradford,-Garcia-And-Drake",Hospital,St. Andrew,3.0,2023-04-18,,13.222,-59.06948,Good
b41ff9,Bradford-Harper Clinic,Clinic,St. Lucy,400.0,2020-09-15,,12.99707,-59.18829,
HF-4661,Bradford-Smith Health Centre,Hospital,St. John,,2016-04-18,,12.7552,-58.76945,Follow-up 2023
09376,Bradley Inc,Hospital,St. Peter,10.0,2021-03-24,,,,Reinspection due
HF-7291,Bradley Llc,Hospital,St. Lucy,,2021-06-08,2018-01-27,12.80154,-59.09661,Good
802,Bradley Llc Clinic,Community Health Centre,St. Andrew,10.0,2020-03-05,,,,
4921c2,Bradley Ltd Hosp,Unknown,St. Andrew,,2023-02-11,,13.27695,-58.97209,
af30f0,Bradley Plc,Clinic,St. George,,2020-08-20,,,,♥
5767,Bradley Plc Hosp,Community Health Centre,St. Andrew,387.0,2025-09-05,2023-08-20,,,Good
1732,Bradley Plc Hosp,Unknown,St. Lucy,395.0,2019-12-12,,,,Reinspection due
807,"Bradley, Campbell And Ballard",Clinic,St. Peter,,2024-01-30,2022-11-15,13.18035,-58.98903, 
f5caa6,"Bradley,-Galloway-And-Jones Hospital",Hospital,St. Lucy,273.0,2016-03-31,,12.71221,-59.12622,-
05168,Bradley-Garcia Infirmary,Community Health Centre,St. Peter,,2025-01-07,2019-03-11,,,-
#2451,Bradley-Glenn,Unknown,St. Michael,457.0,2023-09-19,,13.28402,-59.23865,-
811,Bradley-Martinez Hosp,Polyclinic,St. Andrew,,2018-12-01,,13.26153,-58.90301,Needs upgrade
#7411,Bradley-Smith,Clinic,St. James,466.0,2020-02-09,2024-01-30,12.91507,-59.04628,Good
04990,Bradley-Snyder,Clinic,St. Lucy,491.0,2024-09-27,,,,
#6958,Bradley-Stevens Polyclinic,Hospital,St. George,53.0,2020-03-01,2019-09-10,13.27742,-58.99958,Follow-up 2023
815,Bradley-Swanson Health Centre,Other,St. George,11.0,2016-06-28,,,, 
HF-6266,Bradshaw Ltd,Other,St. Peter,164.0,2022-08-15,2020-08-12,,,
HF-4172,Bradshaw Ltd,Unknown,St. Lucy,,2023-12-01,,,,-
818,"Bradshaw,-Campbell-And-Nichols",Community Health Centre,St. Peter,,2023-07-04,,13.1069,-58.90041,Good
07273,Brady Group Hosp,Polyclinic,St. James,37.0,2025-10-20,,12.83854,-59.08591, 
2191,Brady Ltd Medical Center,Community Health Centre,St. John,274.0,2019-11-09,2021-04-15,,, 
HF-0118,Brady Plc,Hospital,St. Michael,,2021-02-19,,13.06796,-58.97284, 
801,"Brady, Paul And Huang Medical Center",Clinic,St. John,10.0,2016-05-17,,13.07582,-59.28183,Follow-up 2023
3a49bb,"Brady,-Beard-And-Pearson",Other,St. John,276.0,2018-04-29,,,,Follow-up 2023
09609,Brady-Stephens Infirmary (Hcruhc),Unknown,Hcruhc Tsirhc,,2017-11-14,,12.74456,-58.95636,Good
#8099,"Branch, Browning And Stewart Hosp",Unknown,St. Michael,,2023-11-13,,,, 
826,"Branch, Shields And Rivera",Unknown,St. Michael,284.0,2025-03-04,2019-04-19,,,Follow-up 2023
01026,Branch-Williams Infirmary,Unknown,St. George,97.0,2017-04-03,,13.07787,-58.82182,-
828,Brandt Inc,Clinic,St. Joseph,257.0,2024-12-22,,13.07603,-59.02893,-
02302,Brandt-And-Sons Medical Center,Clinic,St. John,312.0,2017-08-25,,13.0701,-58.82656,♥
HF-0992,Brandt-Brown,Hospital,St. George,,2020-07-24,,13.28003,-59.26548,Good
#6079,Brandt-Group Clinic,Other,St. Joseph,10.0,2018-03-24,,12.86481,-59.09157, 
832,Brandt-Ruiz Health Centre,Community Health Centre,St. George,414.0,2016-08-19,,,,Good
833,Braun And Sons Hospital,Hospital,St. George,303.0,2022-04-23,2019-08-23,13.09929,-59.29406,
834,Braun-Gomez Hosp,Community Health Centre,St. Joseph,402.0,2023-01-31,,,,
835,Braun-Nichols,Community Health Centre,St. Joseph,,2021-10-29,,12.98418,-59.07217,♥
932015,Bray Group,Community Health Centre,St. George,376.0,2016-08-12,,12.99656,-58.81535,Needs upgrade
#3732,Bray Plc Hospital,Unknown,St. Joseph,435.0,2022-11-13,,12.81816,-59.28644,Good
6e0813,"Bray, Ellison And Alvarez Hosp",Unknown,St. George,90.0,2019-10-07,,,,♥
f9d85f,Bray-Plc,Other,St. Lucy,10.0,2022-06-19,2018-02-19,13.11405,-58.80419,
6551,Brennan And Sons,Hospital,St. Andrew,97.0,2020-11-24,,12.79777,-59.15359,
#2162,Brennan And Sons Health Centre,Clinic,St. Michael,353.0,2020-09-20,2018-06-17,13.09734,-58.88784,Reinspection due
842,Brennan Ltd,Polyclinic,St. Andrew,112.0,2024-03-01,,13.27217,-59.013,Follow-up 2023
HF-2357,Brewer Llc,Clinic,St. John,,2024-09-26,,13.10958,-59.29898,Good
04816,Brewer-Bell,Clinic,St. Lucy,,2017-06-19,,13.06404,-59.2505,
7134,Brewer-Garcia,Polyclinic,Christ Church,375.0,2019-05-31,2018-04-18,12.9058,-59.07357, 
HF-9927,Brewer-Gibson Hosp,Clinic,St. Peter,,2017-08-12,,13.17011,-58.97704,Good
HF-9539,Brewer-Group,Hospital,St. John,364.0,2021-06-12,2024-01-07,12.74291,-58.81332,♥
#4125,Brewer-Kelly,Clinic,St. George,,2019-05-24,,,,Reinspection due
849,Brewer-Llc,Polyclinic,St. Peter,459.0,2017-01-20,2019-01-14,12.88857,-58.79148,Follow-up 2023
HF-5703,Brewer-Pena,Other,St. James,,2016-05-03,,12.83226,-59.28033,-
#1774,Brewer-Plc Infirmary,Community Health Centre,St. Peter,10.0,2016-02-04,,,,♥
d37a47,"Bridges, Wu And May Polyclinic",Community Health Centre,St. Lucy,69.0,2021-11-30,,,,
bc7341,"Bridges,-Bray-And-Poole",Community Health Centre,St. Michael,296.0,2024-08-31,,12.94927,-59.09333,Follow-up 2023
854,Bridges-Nichols,Polyclinic,St. John,10.0,2020-10-05,,13.12856,-59.28891,Good
fe70bf,Bridges-Richardson,Community Health Centre,St. Michael,386.0,2022-06-08,2022-01-16,13.04989,-59.27227,Follow-up 2023
d3a453,Briggs And Sons Hosp,Hospital,St. John,,2023-10-12,,12.76684,-58.7494,Needs upgrade
HF-2969,Briggs Ltd Health Centre,Community Health Centre,St. Lucy,476.0,2023-05-25,2018-07-07,,,-
9463,"Briggs, Wells And Stokes",Community Health Centre,St. James,,2021-07-02,,12.71015,-58.85981, 
6850,Briggs-Robertson,Community Health Centre,St. Michael,397.0,2020-03-02,,12.98003,-59.01286,-
0c2efb,Briggs-Thompson,Community Health Centre,St. Joseph,,2024-09-11,,13.09459,-59.15007,Good
#7878,Bright Ltd Health Centre,Other,Christ Church,236.0,2016-10-15,,,,-
3927,Bright-Martinez,Clinic,St. Michael,,2022-01-11,,12.73435,-58.78042,Needs upgrade
05933,Bright-Plc,Hospital,Christ Church,10.0,2020-01-25,,12.76296,-59.28883,Good
6016,Brock Inc Medical Center,Clinic,St. James,87.0,2021-02-15,,,,Follow-up 2023
#2296,Brock-Group,Unknown,Christ Church,405.0,2024-10-30,,12.99115,-58.81605,-
866,Brock-Harvey Medical Center,Unknown,St. Michael,,2018-03-21,,,,
HF-8093,Brock-Taylor Infirmary,Other,St. Joseph,484.0,2019-08-27,,12.71352,-59.10308,Needs upgrade
b43199,Brooks And Sons Health Centre,Clinic,St. Michael,356.0,2017-01-18,,13.25442,-59.11206,
869,Brooks Inc,Community Health Centre,St. Joseph,372.0,2023-08-21,,,,-
HF-3348,Brooks Llc,Clinic,St. Michael,403.0,2020-03-07,,12.782,-59.00611,Needs upgrade
#4218,Brooks Llc Infirmary,Community Health Centre,Christ Church,,2019-03-09,2024-10-25,,,
1438d5,Brooks Plc,Community Health Centre,St. Andrew,10.0,2016-12-10,2021-08-07,13.26952,-58.79106,♥
HF-5762,Brooks Plc,Unknown,St. Joseph,453.0,2019-04-27,2018-08-05,,,Reinspection due
874,Brooks Plc Hosp,Hospital,St. Andrew,,2017-05-29,2018-07-23,,,Good
HF-8330,"Brooks, Diaz And Berry Medical Center",Other,St. Michael,10.0,2021-04-29,,,,-
01333,"Brooks, Harper And Johnson Polyclinic",Hospital,St. Joseph,26.0,2020-02-03,,12.73027,-58.97879,-
#5499,"Brooks, Henry And Cruz Hosp",Hospital,St. Peter,,2020-08-29,,12.96031,-59.00658,Follow-up 2023
#9228,"Brooks, Jones And Brown (Ycul)",Unknown,St. Lucy,10.0,2023-06-22,,12.85018,-58.94455,Needs upgrade
879,"Brooks, Leonard And Ho (Ycul)",Polyclinic,St. Lucy,10.0,2020-09-09,,12.84232,-59.23013,-
7624,"Brooks, Mcbride And Huffman",Unknown,St. Lucy,444.0,2023-07-03,,12.92928,-59.12901,Needs upgrade
07616,"Brooks, Padilla And Macias Infirmary",Clinic,Christ Church,,2024-05-31,,13.28344,-58.95705,Follow-up 2023
882,"Brooks, Poole And Gibson Infirmary",Polyclinic,St. James,294.0,2025-04-19,,13.1802,-59.02242,
883,"Brooks, Rodriguez And White Polyclinic",Community Health Centre,St. George,,2025-10-09,,13.09579,-58.86309,Needs upgrade
HF-7750,"Brooks, Sullivan And Reeves",Clinic,St. Andrew,8.0,2016-07-25,2021-04-12,13.17617,-58.89336,Needs upgrade
498b99,"Brooks,-King-And-Thomas",Polyclinic,St. John,86.0,2023-07-31,,13.04824,-59.24731,Reinspection due
189b36,"Brooks,-Phillips-And-Adams Health Centre",Unknown,Christ Church,201.0,2023-10-27,,12.95017,-59.05754, 
#867,Brooks-Contreras Hosp,Hospital,St. Andrew,,2020-02-13,,,,Good
888,Brooks-Delacruz Polyclinic,Unknown,St. Lucy,406.0,2018-12-27,2019-06-01,12.72192,-59.25726, 
#4724,Brooks-Kelly Hospital,Clinic,St. James,171.0,2024-07-05,2024-05-11,12.74596,-58.94217,♥
890,Brooks-Knight Health Centre,Community Health Centre,St. James,484.0,2019-05-25,,13.10369,-58.94856,Follow-up 2023
05630,Brooks-Plc Medical Center,Community Health Centre,St. Lucy,10.0,2020-11-20,,,,Reinspection due
892,Brooks-Taylor Hosp,Clinic,St. George,434.0,2020-06-19,2019-05-17,13.06442,-58.86328,Follow-up 2023
893,Brooks-Williams,Hospital,St. James,275.0,2016-06-29,2025-03-28,13.24493,-58.73839,Reinspection due
#7388,Brooks-Wood,Hospital,St. James,,2017-12-10,,13.0272,-59.17399,Needs upgrade
4529,Brown And Sons,Community Health Centre,Christ Church,,2016-03-27,,12.95078,-59.09664,Needs upgrade
322f79,Brown And Sons Clinic,Other,St. George,42.0,2017-03-26,,12.72965,-59.10435,Good
6020,Brown And Sons Infirmary,Clinic,St. George,88.0,2024-01-08,,,,
1809,Brown And Sons Medical Center,Polyclinic,St. Lucy,337.0,2020-07-02,,,,Needs upgrade
00429,Brown And Sons Medical Center,Hospital,St. Peter,169.0,2021-06-06,,13.12704,-59.2053,
d13b97,Brown And Sons Medical Center,Hospital,St. Andrew,,2016-10-31,,,,Reinspection due
#7757,Brown Group Clinic,Clinic,St. James,,2021-03-13,2018-01-06,13.28972,-59.13699,
902,Brown Group Infirmary,Polyclinic,St. Andrew,,2025-12-18,2021-02-09,13.26003,-59.19549, 
903,Brown Group Infirmary,Community Health Centre,St. Lucy,,2024-11-25,,,,
#5377,Brown Inc,Polyclinic,St. Michael,10.0,2019-01-26,2025-02-14,13.18422,-59.23378,
#4069,Brown Inc,Community Health Centre,St. Joseph,327.0,2024-10-29,,,,♥
906,Brown Inc,Hospital,Christ Church,,2023-07-03,,13.20643,-59.12918,Needs upgrade
8680,Brown Inc Health Centre,Community Health Centre,St. Peter,178.0,2024-07-09,2025-08-19,13.11526,-58.86844,Reinspection due
HF-9519,Brown Inc Hospital,Hospital,St. John,161.0,2016-05-30,,12.79283,-59.24712,Good
#895,Brown Inc Infirmary,Unknown,St. George,207.0,2025-12-08,,13.02619,-59.23663,Good
2608,Brown Inc Infirmary,Polyclinic,St. Lucy,276.0,2019-01-21,,13.15548,-58.83153,Reinspection due
928,Brown Inc Polyclinic,Unknown,St. Andrew,312.0,2024-06-11,,12.89346,-59.07857,Follow-up 2023
912,Brown Inc Polyclinic,Unknown,St. George,431.0,2017-10-10,,,,Follow-up 2023
913,Brown Llc,Polyclinic,St. Joseph,,2017-07-11,,,,
914,Brown Llc,Hospital,St. Lucy,,2016-06-11,2022-09-27,13.28173,-58.79171,-
HF-6975,Brown Llc,Community Health Centre,St. John,77.0,2023-04-05,,12.71511,-58.73262,Reinspection due
836d33,Brown Llc,Clinic,Christ Church,10.0,2025-12-13,,,, 
917,Brown Llc,Clinic,St. Andrew,223.0,2017-01-09,,13.11308,-59.08064,Follow-up 2023
07278,Brown Llc,Community Health Centre,St. James,94.0,2020-01-06,,,,Needs upgrade
#3428,Brown Llc Health Centre,Hospital,St. Joseph,10.0,2025-08-25,,,,
3893,Brown Llc Infirmary,Community Health Centre,St. James,,2021-10-17,,,,Follow-up 2023
921,Brown Llc Infirmary,Polyclinic,St. Joseph,,2016-12-25,,,,
922,Brown Ltd,Unknown,St. James,451.0,2017-04-30,,,,
d174ca,Brown Ltd Clin,Clinic,St. Joseph,317.0,2018-05-01,,,,Follow-up 2023
924,Brown Ltd Hosp,Clinic,St. Andrew,227.0,2025-12-30,2022-01-03,12.85592,-58.94054,Needs upgrade
925,Brown Ltd Infirmary,Community Health Centre,St. Michael,10.0,2017-06-23,2021-11-21,12.73857,-59.11338,Follow-up 2023
926,Brown Ltd Polyclinic,Clinic,St. Andrew,433.0,2024-05-24,,13.17124,-59.06615,Good
#2388,Brown Plc Clinic,Clinic,St. Peter,311.0,2016-07-19,,,, 
#7678,Brown Plc Hospital,Clinic,Christ Church,10.0,2016-09-01,2018-05-27,,,Reinspection due
929,Brown Plc Medical Center,Hospital,Hcruhc Tsirhc,,2021-03-04,,12.73832,-59.20609,Follow-up 2023
2ba130,Brown Plc Polyclinic,Polyclinic,St. James,,2016-07-07,2024-05-28,,,Reinspection due
08822a,Brown Plc Polyclinic,Community Health Centre,St. Joseph,,2022-03-28,2023-11-25,,,♥
932,"Brown, Allen And Sandoval Health Centre",Community Health Centre,St. Michael,200.0,2025-08-31,2018-08-02,,,Follow-up 2023
933,"Brown, Baker And Robinson",Community Health Centre,St. James,,2017-07-31,,12.82865,-59.19978, 
HF-4646,"Brown, Barker And Smith Medical Center",Hospital,St. Peter,,2023-05-09,,13.2139,-58.88527,-
HF-5601,"Brown, Bennett And Martinez Health Centre",Community Health Centre,St. Andrew,10.0,2020-10-27,,13.20158,-58.89103,
03629,"Brown, Bush And Murphy Hospital",Clinic,St. Michael,,2025-01-18,2024-09-16,12.90154,-58.91438, 
242824,"Brown, Callahan And Mullins",Clinic,St. Michael,366.0,2024-02-21,,13.01021,-58.93329,Follow-up 2023
HF-3302,"Brown, Campbell And Johnson",Polyclinic,St. John,196.0,2022-12-18,,,,
#734,"Brown, Clark And Perez Infirmary",Clinic,St. John,412.0,2025-09-16,2024-07-18,13.08318,-58.95491,Needs upgrade
940,"Brown, Davidson And Hawkins Health Centre",Other,St. Peter,246.0,2024-11-17,,,,
#3452,"Brown, Fleming And Lee Infirmary",Polyclinic,St. James,10.0,2016-03-06,,,,
#3330,"Brown, Guerrero And Bautista Health Centre",Other,St. John,450.0,2022-01-12,,12.76194,-58.78636,-
943,"Brown, Huang And Moore Hosp",Community Health Centre,St. Joseph,378.0,2019-03-16,,,,
e1fbe9,"Brown, Hurley And Simmons Hosp",Polyclinic,St. Lucy,,2018-05-07,2020-11-30,13.13988,-59.18159,
#4288,"Brown, Jones And Wilson",Community Health Centre,St. Lucy,125.0,2017-01-21,2023-07-12,13.17309,-59.04847,
946,"Brown, Krueger And Mcpherson Hosp",Community Health Centre,St. George,347.0,2018-11-16,,12.98058,-58.74021,
HF-3760,"Brown, Lamb And Johnson Hosp",Other,St. Michael,356.0,2016-09-30,,,,Needs upgrade
40d09d,"Brown, Nunez And Malone",Clinic,St. George,,2024-01-10,,,, 
04773,"Brown, Oliver And Johnston Hospital",Community Health Centre,St. Lucy,289.0,2017-02-16,,,,♥
950,"Brown, Olsen And Cohen Polyclinic",Hospital,St. Lucy,129.0,2018-07-23,,,,Follow-up 2023
#2023,"Brown, Olson And Davis Health Centre",Polyclinic,Christ Church,,2017-03-20,2018-07-23,,,Follow-up 2023
952,"Brown, Reynolds And Mccarty Health Centre",Community Health Centre,St. John,,2024-01-18,,13.20191,-59.18296,Good
HF-3437,"Brown, Rodriguez And Wang Clinic",Clinic,St. James,167.0,2022-06-30,2021-12-11,12.99327,-58.96511,Follow-up 2023
#2669,"Brown, Smith And Martinez Hosp",Clinic,St. Joseph,10.0,2019-02-17,,12.88703,-58.99916,Needs upgrade
#1478,"Brown, Snyder And Watkins Health Centre",Unknown,St. Peter,,2019-08-14,,12.89345,-58.75217,-
956,"Brown, Spears And Hawkins Health Centre",Community Health Centre,St. Michael,172.0,2025-10-05,,,,Follow-up 2023
08906,"Brown, Stanley And Bryant Medical Center",Community Health Centre,St. Andrew,466.0,2019-04-19,,12.96097,-58.74176,-
d26f6d,"Brown, Warren And Coffey",Unknown,St. Andrew,166.0,2018-03-28,2020-05-20,12.98946,-58.71971,♥
00894,"Brown, Young And Chan Polyclinic",Community Health Centre,St. George,,,,,,
d47303,"Brown,-Bird-And-Gonzales Hosp",Polyclinic,St. Lucy,,2017-01-10,2025-09-30,,,♥
9611,"Brown,-Collins-And-Taylor",Unknown,St. Joseph,10.0,2021-05-12,,13.22861,-58.98088,
HF-9693,"Brown,-Hanson-And-Taylor",Community Health Centre,St. Peter,157.0,2019-02-26,,12.81882,-58.93413, 
963,"Brown,-Houston-And-Wong",Community Health Centre,St. Joseph,,2020-10-10,2018-09-08,12.75678,-59.06664,Good
964,"Brown,-Mclaughlin-And-Morton",Polyclinic,Hcruhc Tsirhc,,2020-03-21,,,,-
5976,"Brown,-Molina-And-Crawford",Clinic,St. Peter,338.0,2024-06-27,2018-05-16,12.9856,-59.07011,Good
966,"Brown,-Perez-And-Turner Infirmary",Community Health Centre,St. Andrew,489.0,2024-01-09,,12.74736,-59.11311,
42c660,"Brown,-Stanley-And-White Infirmary",Community Health Centre,St. James,,2025-07-15,2021-07-11,,,
HF-6925,"Brown,-Tran-And-Hernandez Medical Center",Hospital,St. Lucy,426.0,2021-02-03,2025-10-24,12.99603,-58.90794,-
969,"Brown,-Vaughn-And-George",Polyclinic,St. Joseph,10.0,2021-12-15,,13.16607,-58.79187,
#1511,"Brown,-West-And-Pearson Health Centre",Hospital,St. Joseph,395.0,2022-12-22,,13.24053,-58.88141,Follow-up 2023
971,"Brown,-White-And-Sanchez",Polyclinic,St. Lucy,10.0,2020-12-27,,12.88844,-58.92057,Reinspection due
03699,Brown-Adams,Hospital,St. Michael,108.0,2021-01-05,,12.90172,-58.86034,
09899,Brown-And-Sons,Community Health Centre,St. James,,2017-09-07,,,,Reinspection due
#8794,Brown-And-Sons,Unknown,St. Joseph,74.0,2017-05-02,,,,Reinspection due
9276,Brown-Anderson,Polyclinic,St. John,454.0,2024-04-07,,13.24554,-59.06582,♥
07590,Brown-Anderson,Hospital,St. George,,2018-03-23,,12.86544,-59.02946,♥
7779,Brown-Anderson Hosp,Community Health Centre,St. James,10.0,2022-06-18,,12.72969,-58.98613, 
978,Brown-Anderson Infirmary,Polyclinic,St. Andrew,406.0,2025-03-01,,12.85483,-58.85151,
9f6576,Brown-Branch,Polyclinic,St. James,63.0,2018-01-22,2020-10-08,,, 
02718,Brown-Brown,Community Health Centre,St. Andrew,10.0,2021-04-26,,,,Reinspection due
981,Brown-Brown Health Centre,Community Health Centre,St. Lucy,,2022-01-30,,12.73957,-59.21322,Reinspection due
de3eb0,Brown-Case,Hospital,St. Peter,465.0,2016-06-25,,13.07612,-59.28159,Good
7649,Brown-Clark Clin,Community Health Centre,St. James,427.0,2017-05-11,2023-12-26,,, 
8620,Brown-Clark Hospital,Community Health Centre,St. Joseph,,2020-11-02,2024-12-07,,,Reinspection due
01163,Brown-Douglas,Community Health Centre,St. Joseph,,2019-04-29,,,,Good
02251,Brown-Duncan Polyclinic,Other,Christ Church,30.0,2023-08-02,,12.9823,-59.06219,-
5228,Brown-Ford Medical Center,Community Health Centre,St. John,133.0,2016-10-16,,13.15141,-59.08459,
a327a2,Brown-Fox Health Centre,Unknown,Christ Church,37.0,2016-01-05,,,,Reinspection due
df60e2,Brown-Gilbert Hosp,Polyclinic,St. James,431.0,2019-05-03,,13.1767,-58.93323,
990,Brown-Green Health Centre,Community Health Centre,St. Andrew,336.0,2024-08-12,,,,Needs upgrade
991,Brown-Group Infirmary (Ycul),Polyclinic,St. Lucy,10.0,2018-12-26,,,,Good
09851,Brown-Group Medical Center,Unknown,St. Michael,13.0,2023-07-31,2023-09-08,,,Reinspection due
HF-6255,Brown-Hamilton Hosp,Community Health Centre,St. Joseph,10.0,2018-10-06,,12.89612,-58.70809,Reinspection due
6b470a,Brown-Harrison,Polyclinic,St. Joseph,316.0,2019-10-16,2020-06-18,13.02715,-59.11447,
995,Brown-Higgins Health Centre,Unknown,St. Michael,50.0,2020-10-01,,12.87358,-58.87804,Good
#9041,Brown-Howard,Other,Christ Church,23.0,2022-02-16,,13.22237,-59.08445,
997,Brown-Jackson Infirmary,Community Health Centre,St. Peter,,2023-05-21,,12.73026,-58.76136,
HF-1923,Brown-Johnson,Clinic,St. Lucy,452.0,2017-06-07,,12.99696,-59.08917,Follow-up 2023
2499,Brown-Johnson Infirmary,Hospital,St. Joseph,383.0,2018-01-25,,,,Needs upgrade
967,Brown-Jones Clinic,Other,St. George,10.0,2023-07-05,,13.04802,-58.82615,♥
2614,Brown-Llc Health Centre,Community Health Centre,St. Andrew,,2025-10-23,,13.18335,-58.84253,♥
#4537,Brown-Long Health Centre,Clinic,St. James,,2025-01-05,2025-06-17,13.08543,-58.94954,♥
1003,Brown-Lucas Clinic,Polyclinic,St. James,422.0,2018-12-23,,12.90411,-58.84414,Reinspection due
HF-5034,Brown-Montgomery,Community Health Centre,St. Lucy,418.0,2023-12-08,,12.78755,-59.16465,♥
03761,Brown-Nichols Infirmary,Community Health Centre,Christ Church,,2019-04-13,,12.86083,-58.96527,♥
#3054,Brown-Peck Infirmary,Unknown,St. Lucy,10.0,2016-01-22,,12.96897,-58.87592, 
07503,Brown-Pena Infirmary,Unknown,St. Joseph,407.0,2018-08-29,,12.7637,-59.14641, 
1008,Brown-Pierce Clinic,Community Health Centre,St. Andrew,270.0,2025-01-05,,13.21542,-59.09262,Follow-up 2023
e6da85,Brown-Ramirez,Unknown,St. Andrew,474.0,2018-05-12,,12.81384,-58.82744,Needs upgrade
#6244,Brown-Robinson,Hospital,St. George,105.0,2023-10-14,,,,Follow-up 2023
a297a7,Brown-Ross Polyclinic,Unknown,St. James,33.0,2017-01-26,,12.94023,-58.99273,Follow-up 2023
76a225,Brown-Ryan Medical Center,Clinic,St. James,118.0,2019-09-12,,13.2254,-58.79809,
dad85a,Brown-Smith Clin,Community Health Centre,St. Peter,45.0,2019-11-08,2024-06-16,13.25568,-59.26412,Follow-up 2023
01248,Brown-Tanner Infirmary,Clinic,St. Peter,118.0,2021-03-04,2024-10-24,13.20293,-59.06509,Needs upgrade
#9393,Brown-Vang,Hospital,St. James,165.0,2023-02-21,,,,Reinspection due
1016,Brown-Wang Clinic,Unknown,St. James,268.0,2021-12-07,,,,Reinspection due
00420,Brown-Wilcox,Other,St. Joseph,,2021-09-09,,,,Good
1018,Brown-Williams Polyclinic,Unknown,St. Lucy,,2025-11-27,,,,Good
5804,Brown-Willis Infirmary,Polyclinic,St. Andrew,79.0,2023-09-22,,12.75045,-59.01607,-
011,Brown-Wilson,Community Health Centre,Christ Church,27.0,2020-09-27,,,,Reinspection due
1021,Brown-Wood Health Centre,Polyclinic,St. John,108.0,2017-01-04,,12.9094,-59.08116,Reinspection due
HF-5615,Browning Inc Medical Center,Unknown,St. George,305.0,2016-06-17,2021-10-15,,, 
8827,Browning Plc Polyclinic,Hospital,St. Lucy,90.0,2019-02-19,,13.03588,-59.20369,
HF-9901,Browning-Arellano Hosp,Clinic,St. Michael,,2017-08-27,,,,Good
1025,Bruce And Sons Hospital,Unknown,Christ Church,,2017-05-26,,12.89958,-58.7684, 
1026,Bruce Group Hospital,Community Health Centre,St. George,57.0,2018-02-21,,,,Follow-up 2023
HF-4736,"Bruce, Lewis And Alvarado Hosp",Hospital,St. George,,2021-03-14,,12.94525,-59.21662,-
6d132f,Bruce-Smith Hosp,Clinic,St. Lucy,338.0,2021-10-11,,13.09395,-58.94509, 
00869,Bryan Group Hosp,Clinic,St. John,40.0,2018-01-17,,,,
1030,"Bryan, Williams And Russell Hosp",Clinic,St. Joseph,465.0,2024-02-21,,13.04241,-59.14748,Good
HF-8726,Bryan-Carter,Hospital,St. Peter,410.0,2022-05-19,,,,Needs upgrade
02961,Bryan-Rush Hospital,Hospital,St. George,179.0,2018-11-11,,13.00996,-58.95234,Reinspection due
1033,Bryant And Sons Polyclinic,Hospital,Christ Church,119.0,2017-01-02,,,,Needs upgrade
7623,"Bryant, Brown And Kennedy Clin",Clinic,St. Joseph,76.0,2020-10-18,,12.87222,-58.70955,-
01105,"Bryant, Gilbert And Howard Medical Center",Clinic,St. James,392.0,2025-05-12,,13.22845,-59.23113,-
09516,"Bryant,-Hayes-And-Morgan Clin",Hospital,St. George,307.0,2017-09-27,2025-03-08,12.92801,-58.71969,-
HF-7809,Bryant-And-Sons,Community Health Centre,St. Andrew,,2023-02-08,,12.82004,-59.21545,Follow-up 2023
6ea060,Bryant-And-Sons Clinic,Community Health Centre,St. James,227.0,2021-12-18,,13.22421,-59.09464,
HF-8837,Bryant-Group Hospital,Community Health Centre,St. George,285.0,2022-07-01,,,,
9709,Bryant-Inc Hospital,Other,St. Peter,10.0,2019-10-01,2020-04-21,13.20261,-59.13511,Good
1041,Bryant-Llc,Community Health Centre,Christ Church,427.0,2025-10-23,,,,Reinspection due
#4408,Bryant-Martin Medical Center,Unknown,St. Andrew,453.0,2021-06-11,,13.12196,-58.87174,♥
HF-3232,Bryant-Stewart Hospital,Unknown,St. Lucy,391.0,2021-09-25,,,,Follow-up 2023
1044,Bryant-Wilson Health Centre,Clinic,Christ Church,449.0,2023-10-03,,12.90091,-59.26057,♥
1045,"Buchanan, Hayden And Wade",Clinic,Christ Church,77.0,2021-11-10,,,, 
HF-7340,"Buchanan, Huff And Sosa Hospital",Community Health Centre,St. Joseph,21.0,2017-03-18,,13.18287,-58.98727,-
14ce76,"Buchanan, Martin And Estes Hospital",Clinic,St. Peter,398.0,2018-02-03,,12.70816,-59.26105, 
b4f412,"Buchanan, Richard And Burch",Community Health Centre,St. Joseph,132.0,2025-01-24,,,,Follow-up 2023
HF-8588,"Buchanan, Rodriguez And Hernandez",Polyclinic,St. Peter,158.0,2017-08-02,2020-11-13,,,Good
1050,Buchanan-Medina,Other,Christ Church,,2016-04-05,,13.11603,-59.14695, 
625,Buchanan-Plc Medical Center,Other,St. John,,2020-12-30,,,,
9443,"Buck, Farrell And Stevenson Medical Center",Clinic,St. John,,2018-02-27,,13.00026,-59.12121,Good
HF-5748,"Buck,-Scott-And-Jones",Clinic,St. James,137.0,2022-08-04,,13.21491,-59.064,
HF-6744,"Buck,-Wilcox-And-Gardner",Community Health Centre,St. Peter,29.0,2018-03-30,,13.18614,-59.26581,-
1055,"Buckley, Stone And Harris",Polyclinic,St. Peter,446.0,2024-02-02,2025-12-01,12.92028,-59.19906,Follow-up 2023
1056,Buckley-Luna Health Centre,Unknown,Christ Church,65.0,2021-04-19,,,,Reinspection due
8791,Buckley-Plc Infirmary,Clinic,St. John,,2023-06-21,,,, 
#9979,Bullock And Sons Health Centre,Hospital,St. Lucy,,2020-01-29,2024-12-30,12.98014,-59.24105,Needs upgrade
HF-4629,"Bullock,-Dean-And-Hardin",Polyclinic,St. George,,2021-11-05,,,,
HF-4650,Bullock-Rodriguez,Unknown,St. George,10.0,2024-08-21,,13.16699,-59.02914,-
1061,Burch And Sons,Polyclinic,St. George,116.0,2018-11-11,,,,Good
01828,Burch And Sons Infirmary,Community Health Centre,St. John,10.0,2023-04-26,,12.88618,-58.93947,Good
05921,Burch Group (Hcruhc),Hospital,Hcruhc Tsirhc,389.0,2023-01-04,,13.05974,-59.14967,
4741a7,Burch Ltd,Clinic,St. Lucy,458.0,2017-11-28,,13.01098,-59.1166, 
1065,Burch Ltd Polyclinic,Polyclinic,St. Peter,60.0,2021-11-11,,13.0116,-58.71296,
3344,"Burgess,-Perkins-And-Colon Hospital",Clinic,St. Joseph,11.0,2020-01-06,,,, 
HF-0000,Burgess-Ingram Medical Center,Community Health Centre,St. Lucy,250.0,2021-01-04,2024-03-08,13.08576,-58.75331,
1068,Burgess-Jordan Clinic,Clinic,St. Joseph,10.0,2017-06-19,2023-02-19,13.17452,-58.74581,
5685,Burgess-Navarro Health Centre,Polyclinic,St. Joseph,,2023-10-06,,12.96312,-59.11674,Reinspection due
1070,Burgess-Smith,Unknown,St. John,,2021-02-27,,13.20442,-58.90909,-
06228,Burke Ltd Polyclinic,Other,St. Andrew,79.0,2025-11-08,,,,Needs upgrade
#858,"Burke, Cordova And Hayes Medical Center",Clinic,Christ Church,265.0,2024-03-07,,,, 
638761,"Burke, Miller And Davis Infirmary",Clinic,St. Michael,,2019-01-14,,12.74911,-59.0366,♥
HF-2491,"Burke, Nelson And May",Unknown,St. James,,2018-01-05,2024-11-21,12.97887,-58.94914, 
1075,"Burke, Valdez And Casey Health Centre",Community Health Centre,St. Michael,,2016-08-13,2025-08-18,12.78103,-58.9381,Reinspection due
4036,Burke-Fields,Polyclinic,St. Lucy,397.0,2023-07-16,,,,Follow-up 2023
HF-7064,Burke-Hood Health Centre,Polyclinic,Christ Church,10.0,2017-01-08,,,,
5112,Burke-Mason Infirmary,Community Health Centre,St. Andrew,293.0,2024-04-15,,12.7882,-59.08688,Good
06099,Burke-Parker,Unknown,St. John,,2020-11-02,,,, 
1080,Burke-Plc Health Centre,Clinic,St. Lucy,,2019-12-25,,13.25167,-59.00936,Good
HF-1271,Burke-Stewart Polyclinic,Polyclinic,St. Joseph,403.0,2019-05-06,,,,Needs upgrade
02209,Burke-Wise Hosp,Hospital,St. Peter,,2022-02-10,,12.99991,-59.15274,Needs upgrade
1083,"Burnett, Coleman And Tapia Infirmary",Hospital,St. Andrew,,2020-09-06,2019-02-17,12.99021,-59.13245,Follow-up 2023
1084,"Burnett, Johnson And Salinas Infirmary",Clinic,St. Joseph,,2021-03-09,2022-01-12,12.76198,-58.9835,Good
HF-2028,Burns Ltd,Community Health Centre,St. John,455.0,2016-02-28,,,, 
HF-4448,Burns Ltd Health Centre,Clinic,St. George,125.0,2025-04-16,,12.99035,-59.23455,Good
21043b,"Burns, Buckley And Mckee Hosp",Clinic,Christ Church,415.0,2023-06-17,,12.86334,-59.00208,
HF-2650,"Burns,-Carter-And-Colon",Unknown,St. Michael,333.0,2022-11-26,,12.91661,-58.9242,Needs upgrade
1310,Burns-Avery Hospital,Clinic,St. Lucy,281.0,2021-03-17,,,,-
84fc2f,Burns-Edwards Hosp,Clinic,St. Joseph,,2020-04-29,,13.29294,-59.11883,-
HF-3858,Burns-Ellis,Polyclinic,St. Joseph,171.0,2018-04-13,,12.8552,-58.79723,Needs upgrade
720bb1,Burns-Group Polyclinic,Community Health Centre,Christ Church,496.0,2022-08-12,2020-11-26,,,-
#8112,Burns-Inc Medical Center,Unknown,St. Lucy,,2024-10-01,,12.71002,-59.05495,Follow-up 2023
